{
    "results": [
        {
            "name": {
                "title": "mrs",
                "first": "victoria",
                "last": "hicks"
            },
            "location": {
                "street": "5962 station road",
                "city": "norwich",
                "state": "cumbria",
                "postcode": "WG1S 8WX"
            },
            "picture": {
                "large": "https://randomuser.me/api/portraits/women/83.jpg",
                "medium": "https://randomuser.me/api/portraits/med/women/83.jpg",
                "thumbnail": "https://randomuser.me/api/portraits/thumb/women/83.jpg"
            },
            "nat": "GB"
        },
        {
            "name": {
                "title": "ms",
                "first": "lola",
                "last": "thomas"
            },
            "location": {
                "street": "8713 green lane",
                "city": "kingston upon hull",
                "state": "county armagh",
                "postcode": "RS8F 1GY"
            },
            "picture": {
                "large": "https://randomuser.me/api/portraits/women/12.jpg",
                "medium": "https://randomuser.me/api/portraits/med/women/12.jpg",
                "thumbnail": "https://randomuser.me/api/portraits/thumb/women/12.jpg"
            },
            "nat": "GB"
        },
        {
            "name": {
                "title": "mrs",
                "first": "audrey",
                "last": "andrews"
            },
            "location": {
                "street": "5739 wycliff ave",
                "city": "wichita falls",
                "state": "new york",
                "postcode": 42575
            },
            "picture": {
                "large": "https://randomuser.me/api/portraits/women/64.jpg",
                "medium": "https://randomuser.me/api/portraits/med/women/64.jpg",
                "thumbnail": "https://randomuser.me/api/portraits/thumb/women/64.jpg"
            },
            "nat": "US"
        },
        {
            "name": {
                "title": "ms",
                "first": "charlotte",
                "last": "west"
            },
            "location": {
                "street": "8859 queen street",
                "city": "westminster",
                "state": "fife",
                "postcode": "W9 0SL"
            },
            "picture": {
                "large": "https://randomuser.me/api/portraits/women/6.jpg",
                "medium": "https://randomuser.me/api/portraits/med/women/6.jpg",
                "thumbnail": "https://randomuser.me/api/portraits/thumb/women/6.jpg"
            },
            "nat": "GB"
        },
        {
            "name": {
                "title": "ms",
                "first": "vicki",
                "last": "silva"
            },
            "location": {
                "street": "7694 w belt line rd",
                "city": "thornton",
                "state": "illinois",
                "postcode": 64315
            },
            "picture": {
                "large": "https://randomuser.me/api/portraits/women/51.jpg",
                "medium": "https://randomuser.me/api/portraits/med/women/51.jpg",
                "thumbnail": "https://randomuser.me/api/portraits/thumb/women/51.jpg"
            },
            "nat": "US"
        },
        {
            "name": {
                "title": "mrs",
                "first": "victoria",
                "last": "møller"
            },
            "location": {
                "street": "5293 violvej",
                "city": "stenderup",
                "state": "midtjylland",
                "postcode": 96731
            },
            "picture": {
                "large": "https://randomuser.me/api/portraits/women/6.jpg",
                "medium": "https://randomuser.me/api/portraits/med/women/6.jpg",
                "thumbnail": "https://randomuser.me/api/portraits/thumb/women/6.jpg"
            },
            "nat": "DK"
        },
        {
            "name": {
                "title": "miss",
                "first": "nellie",
                "last": "bates"
            },
            "location": {
                "street": "4487 preston rd",
                "city": "frisco",
                "state": "indiana",
                "postcode": 65942
            },
            "picture": {
                "large": "https://randomuser.me/api/portraits/women/34.jpg",
                "medium": "https://randomuser.me/api/portraits/med/women/34.jpg",
                "thumbnail": "https://randomuser.me/api/portraits/thumb/women/34.jpg"
            },
            "nat": "US"
        },
        {
            "name": {
                "title": "miss",
                "first": "lucille",
                "last": "taylor"
            },
            "location": {
                "street": "6198 james st",
                "city": "rio rancho",
                "state": "alaska",
                "postcode": 16505
            },
            "picture": {
                "large": "https://randomuser.me/api/portraits/women/31.jpg",
                "medium": "https://randomuser.me/api/portraits/med/women/31.jpg",
                "thumbnail": "https://randomuser.me/api/portraits/thumb/women/31.jpg"
            },
            "nat": "US"
        },
        {
            "name": {
                "title": "ms",
                "first": "letitia",
                "last": "larson"
            },
            "location": {
                "street": "2554 hickory creek dr",
                "city": "el cajon",
                "state": "north dakota",
                "postcode": 58156
            },
            "picture": {
                "large": "https://randomuser.me/api/portraits/women/32.jpg",
                "medium": "https://randomuser.me/api/portraits/med/women/32.jpg",
                "thumbnail": "https://randomuser.me/api/portraits/thumb/women/32.jpg"
            },
            "nat": "US"
        },
        {
            "name": {
                "title": "miss",
                "first": "karla",
                "last": "kristensen"
            },
            "location": {
                "street": "3608 ryttervænget",
                "city": "overby lyng",
                "state": "nordjylland",
                "postcode": 75083
            },
            "picture": {
                "large": "https://randomuser.me/api/portraits/women/46.jpg",
                "medium": "https://randomuser.me/api/portraits/med/women/46.jpg",
                "thumbnail": "https://randomuser.me/api/portraits/thumb/women/46.jpg"
            },
            "nat": "DK"
        },
        {
            "name": {
                "title": "ms",
                "first": "samantha",
                "last": "sanders"
            },
            "location": {
                "street": "7006 queen street",
                "city": "lichfield",
                "state": "gwent",
                "postcode": "JD2 0SN"
            },
            "picture": {
                "large": "https://randomuser.me/api/portraits/women/73.jpg",
                "medium": "https://randomuser.me/api/portraits/med/women/73.jpg",
                "thumbnail": "https://randomuser.me/api/portraits/thumb/women/73.jpg"
            },
            "nat": "GB"
        },
        {
            "name": {
                "title": "miss",
                "first": "lauren",
                "last": "scott"
            },
            "location": {
                "street": "6790 london road",
                "city": "edinburgh",
                "state": "south glamorgan",
                "postcode": "NK8 9FU"
            },
            "picture": {
                "large": "https://randomuser.me/api/portraits/women/96.jpg",
                "medium": "https://randomuser.me/api/portraits/med/women/96.jpg",
                "thumbnail": "https://randomuser.me/api/portraits/thumb/women/96.jpg"
            },
            "nat": "GB"
        },
        {
            "name": {
                "title": "ms",
                "first": "marilou",
                "last": "schmitt"
            },
            "location": {
                "street": "3350 rue du château",
                "city": "montreuil",
                "state": "hautes-alpes",
                "postcode": 45323
            },
            "picture": {
                "large": "https://randomuser.me/api/portraits/women/49.jpg",
                "medium": "https://randomuser.me/api/portraits/med/women/49.jpg",
                "thumbnail": "https://randomuser.me/api/portraits/thumb/women/49.jpg"
            },
            "nat": "FR"
        },
        {
            "name": {
                "title": "miss",
                "first": "anna",
                "last": "nielsen"
            },
            "location": {
                "street": "8596 vesterled",
                "city": "københavn ø",
                "state": "sjælland",
                "postcode": 93638
            },
            "picture": {
                "large": "https://randomuser.me/api/portraits/women/47.jpg",
                "medium": "https://randomuser.me/api/portraits/med/women/47.jpg",
                "thumbnail": "https://randomuser.me/api/portraits/thumb/women/47.jpg"
            },
            "nat": "DK"
        },
        {
            "name": {
                "title": "mrs",
                "first": "victoria",
                "last": "gonzalez"
            },
            "location": {
                "street": "8873 rue de la fontaine",
                "city": "perpignan",
                "state": "jura",
                "postcode": 40999
            },
            "picture": {
                "large": "https://randomuser.me/api/portraits/women/69.jpg",
                "medium": "https://randomuser.me/api/portraits/med/women/69.jpg",
                "thumbnail": "https://randomuser.me/api/portraits/thumb/women/69.jpg"
            },
            "nat": "FR"
        },
        {
            "name": {
                "title": "miss",
                "first": "sam",
                "last": "hart"
            },
            "location": {
                "street": "7837 park avenue",
                "city": "bradford",
                "state": "shropshire",
                "postcode": "CV7M 8HH"
            },
            "picture": {
                "large": "https://randomuser.me/api/portraits/women/25.jpg",
                "medium": "https://randomuser.me/api/portraits/med/women/25.jpg",
                "thumbnail": "https://randomuser.me/api/portraits/thumb/women/25.jpg"
            },
            "nat": "GB"
        },
        {
            "name": {
                "title": "miss",
                "first": "diane",
                "last": "leclercq"
            },
            "location": {
                "street": "3793 avenue vauban",
                "city": "rouen",
                "state": "calvados",
                "postcode": 71511
            },
            "picture": {
                "large": "https://randomuser.me/api/portraits/women/30.jpg",
                "medium": "https://randomuser.me/api/portraits/med/women/30.jpg",
                "thumbnail": "https://randomuser.me/api/portraits/thumb/women/30.jpg"
            },
            "nat": "FR"
        },
        {
            "name": {
                "title": "ms",
                "first": "gail",
                "last": "gomez"
            },
            "location": {
                "street": "7532 sunset st",
                "city": "nampa",
                "state": "idaho",
                "postcode": 68733
            },
            "picture": {
                "large": "https://randomuser.me/api/portraits/women/73.jpg",
                "medium": "https://randomuser.me/api/portraits/med/women/73.jpg",
                "thumbnail": "https://randomuser.me/api/portraits/thumb/women/73.jpg"
            },
            "nat": "US"
        },
        {
            "name": {
                "title": "mrs",
                "first": "katrine",
                "last": "møller"
            },
            "location": {
                "street": "9701 nørrevej",
                "city": "assens",
                "state": "midtjylland",
                "postcode": 77801
            },
            "picture": {
                "large": "https://randomuser.me/api/portraits/women/10.jpg",
                "medium": "https://randomuser.me/api/portraits/med/women/10.jpg",
                "thumbnail": "https://randomuser.me/api/portraits/thumb/women/10.jpg"
            },
            "nat": "DK"
        },
        {
            "name": {
                "title": "miss",
                "first": "selma",
                "last": "christiansen"
            },
            "location": {
                "street": "6039 granvej",
                "city": "vipperød",
                "state": "midtjylland",
                "postcode": 15165
            },
            "picture": {
                "large": "https://randomuser.me/api/portraits/women/75.jpg",
                "medium": "https://randomuser.me/api/portraits/med/women/75.jpg",
                "thumbnail": "https://randomuser.me/api/portraits/thumb/women/75.jpg"
            },
            "nat": "DK"
        },
        {
            "name": {
                "title": "mrs",
                "first": "josefine",
                "last": "poulsen"
            },
            "location": {
                "street": "2693 hvedevænget",
                "city": "lintrup",
                "state": "sjælland",
                "postcode": 18834
            },
            "picture": {
                "large": "https://randomuser.me/api/portraits/women/86.jpg",
                "medium": "https://randomuser.me/api/portraits/med/women/86.jpg",
                "thumbnail": "https://randomuser.me/api/portraits/thumb/women/86.jpg"
            },
            "nat": "DK"
        },
        {
            "name": {
                "title": "mrs",
                "first": "leah",
                "last": "knight"
            },
            "location": {
                "street": "6095 queens road",
                "city": "coventry",
                "state": "powys",
                "postcode": "X4Q 4DX"
            },
            "picture": {
                "large": "https://randomuser.me/api/portraits/women/17.jpg",
                "medium": "https://randomuser.me/api/portraits/med/women/17.jpg",
                "thumbnail": "https://randomuser.me/api/portraits/thumb/women/17.jpg"
            },
            "nat": "GB"
        },
        {
            "name": {
                "title": "mrs",
                "first": "carolyn",
                "last": "franklin"
            },
            "location": {
                "street": "9388 stanley road",
                "city": "bangor",
                "state": "county tyrone",
                "postcode": "Z9 4BH"
            },
            "picture": {
                "large": "https://randomuser.me/api/portraits/women/17.jpg",
                "medium": "https://randomuser.me/api/portraits/med/women/17.jpg",
                "thumbnail": "https://randomuser.me/api/portraits/thumb/women/17.jpg"
            },
            "nat": "GB"
        },
        {
            "name": {
                "title": "miss",
                "first": "debbie",
                "last": "mitchelle"
            },
            "location": {
                "street": "3391 hunters creek dr",
                "city": "omaha",
                "state": "kentucky",
                "postcode": 90872
            },
            "picture": {
                "large": "https://randomuser.me/api/portraits/women/14.jpg",
                "medium": "https://randomuser.me/api/portraits/med/women/14.jpg",
                "thumbnail": "https://randomuser.me/api/portraits/thumb/women/14.jpg"
            },
            "nat": "US"
        },
        {
            "name": {
                "title": "ms",
                "first": "sarah",
                "last": "howell"
            },
            "location": {
                "street": "8651 harrison ct",
                "city": "stanley",
                "state": "maine",
                "postcode": 42137
            },
            "picture": {
                "large": "https://randomuser.me/api/portraits/women/54.jpg",
                "medium": "https://randomuser.me/api/portraits/med/women/54.jpg",
                "thumbnail": "https://randomuser.me/api/portraits/thumb/women/54.jpg"
            },
            "nat": "US"
        },
        {
            "name": {
                "title": "ms",
                "first": "tess",
                "last": "masson"
            },
            "location": {
                "street": "4628 rue duquesne",
                "city": "perpignan",
                "state": "allier",
                "postcode": 20586
            },
            "picture": {
                "large": "https://randomuser.me/api/portraits/women/50.jpg",
                "medium": "https://randomuser.me/api/portraits/med/women/50.jpg",
                "thumbnail": "https://randomuser.me/api/portraits/thumb/women/50.jpg"
            },
            "nat": "FR"
        },
        {
            "name": {
                "title": "ms",
                "first": "enola",
                "last": "andre"
            },
            "location": {
                "street": "2173 avenue joliot curie",
                "city": "saint-pierre",
                "state": "eure-et-loir",
                "postcode": 29650
            },
            "picture": {
                "large": "https://randomuser.me/api/portraits/women/8.jpg",
                "medium": "https://randomuser.me/api/portraits/med/women/8.jpg",
                "thumbnail": "https://randomuser.me/api/portraits/thumb/women/8.jpg"
            },
            "nat": "FR"
        },
        {
            "name": {
                "title": "miss",
                "first": "liva",
                "last": "petersen"
            },
            "location": {
                "street": "6058 strandgade",
                "city": "fredeikssund",
                "state": "nordjylland",
                "postcode": 84309
            },
            "picture": {
                "large": "https://randomuser.me/api/portraits/women/53.jpg",
                "medium": "https://randomuser.me/api/portraits/med/women/53.jpg",
                "thumbnail": "https://randomuser.me/api/portraits/thumb/women/53.jpg"
            },
            "nat": "DK"
        },
        {
            "name": {
                "title": "miss",
                "first": "samantha",
                "last": "perkins"
            },
            "location": {
                "street": "1426 mill lane",
                "city": "armagh",
                "state": "gloucestershire",
                "postcode": "U5 0EZ"
            },
            "picture": {
                "large": "https://randomuser.me/api/portraits/women/12.jpg",
                "medium": "https://randomuser.me/api/portraits/med/women/12.jpg",
                "thumbnail": "https://randomuser.me/api/portraits/thumb/women/12.jpg"
            },
            "nat": "GB"
        },
        {
            "name": {
                "title": "ms",
                "first": "linda",
                "last": "banks"
            },
            "location": {
                "street": "4929 victoria street",
                "city": "belfast",
                "state": "cornwall",
                "postcode": "X6 6LR"
            },
            "picture": {
                "large": "https://randomuser.me/api/portraits/women/58.jpg",
                "medium": "https://randomuser.me/api/portraits/med/women/58.jpg",
                "thumbnail": "https://randomuser.me/api/portraits/thumb/women/58.jpg"
            },
            "nat": "GB"
        },
        {
            "name": {
                "title": "ms",
                "first": "albane",
                "last": "legrand"
            },
            "location": {
                "street": "4456 rue bataille",
                "city": "argenteuil",
                "state": "dordogne",
                "postcode": 80049
            },
            "picture": {
                "large": "https://randomuser.me/api/portraits/women/22.jpg",
                "medium": "https://randomuser.me/api/portraits/med/women/22.jpg",
                "thumbnail": "https://randomuser.me/api/portraits/thumb/women/22.jpg"
            },
            "nat": "FR"
        },
        {
            "name": {
                "title": "ms",
                "first": "erica",
                "last": "jenkins"
            },
            "location": {
                "street": "4515 preston rd",
                "city": "hartford",
                "state": "new jersey",
                "postcode": 45863
            },
            "picture": {
                "large": "https://randomuser.me/api/portraits/women/12.jpg",
                "medium": "https://randomuser.me/api/portraits/med/women/12.jpg",
                "thumbnail": "https://randomuser.me/api/portraits/thumb/women/12.jpg"
            },
            "nat": "US"
        },
        {
            "name": {
                "title": "mrs",
                "first": "signe",
                "last": "rasmussen"
            },
            "location": {
                "street": "1227 skelbækvej",
                "city": "københavn sv",
                "state": "syddanmark",
                "postcode": 22391
            },
            "picture": {
                "large": "https://randomuser.me/api/portraits/women/74.jpg",
                "medium": "https://randomuser.me/api/portraits/med/women/74.jpg",
                "thumbnail": "https://randomuser.me/api/portraits/thumb/women/74.jpg"
            },
            "nat": "DK"
        },
        {
            "name": {
                "title": "mrs",
                "first": "abby",
                "last": "woods"
            },
            "location": {
                "street": "7278 the grove",
                "city": "winchester",
                "state": "hertfordshire",
                "postcode": "VK5C 0RR"
            },
            "picture": {
                "large": "https://randomuser.me/api/portraits/women/63.jpg",
                "medium": "https://randomuser.me/api/portraits/med/women/63.jpg",
                "thumbnail": "https://randomuser.me/api/portraits/thumb/women/63.jpg"
            },
            "nat": "GB"
        },
        {
            "name": {
                "title": "ms",
                "first": "colleen",
                "last": "fleming"
            },
            "location": {
                "street": "6966 cherry st",
                "city": "berkeley",
                "state": "pennsylvania",
                "postcode": 67906
            },
            "picture": {
                "large": "https://randomuser.me/api/portraits/women/56.jpg",
                "medium": "https://randomuser.me/api/portraits/med/women/56.jpg",
                "thumbnail": "https://randomuser.me/api/portraits/thumb/women/56.jpg"
            },
            "nat": "US"
        },
        {
            "name": {
                "title": "ms",
                "first": "emilie",
                "last": "rousseau"
            },
            "location": {
                "street": "3880 esplanade du 9 novembre 1989",
                "city": "nice",
                "state": "vienne",
                "postcode": 10807
            },
            "picture": {
                "large": "https://randomuser.me/api/portraits/women/59.jpg",
                "medium": "https://randomuser.me/api/portraits/med/women/59.jpg",
                "thumbnail": "https://randomuser.me/api/portraits/thumb/women/59.jpg"
            },
            "nat": "FR"
        },
        {
            "name": {
                "title": "ms",
                "first": "mathilde",
                "last": "andersen"
            },
            "location": {
                "street": "3875 vejlby toften",
                "city": "nr åby",
                "state": "danmark",
                "postcode": 81684
            },
            "picture": {
                "large": "https://randomuser.me/api/portraits/women/22.jpg",
                "medium": "https://randomuser.me/api/portraits/med/women/22.jpg",
                "thumbnail": "https://randomuser.me/api/portraits/thumb/women/22.jpg"
            },
            "nat": "DK"
        },
        {
            "name": {
                "title": "miss",
                "first": "yolanda",
                "last": "fletcher"
            },
            "location": {
                "street": "9446 oak lawn ave",
                "city": "norfolk",
                "state": "utah",
                "postcode": 17437
            },
            "picture": {
                "large": "https://randomuser.me/api/portraits/women/39.jpg",
                "medium": "https://randomuser.me/api/portraits/med/women/39.jpg",
                "thumbnail": "https://randomuser.me/api/portraits/thumb/women/39.jpg"
            },
            "nat": "US"
        },
        {
            "name": {
                "title": "mrs",
                "first": "rachel",
                "last": "clement"
            },
            "location": {
                "street": "1231 rue pierre-delore",
                "city": "avignon",
                "state": "guyane",
                "postcode": 15041
            },
            "picture": {
                "large": "https://randomuser.me/api/portraits/women/73.jpg",
                "medium": "https://randomuser.me/api/portraits/med/women/73.jpg",
                "thumbnail": "https://randomuser.me/api/portraits/thumb/women/73.jpg"
            },
            "nat": "FR"
        },
        {
            "name": {
                "title": "ms",
                "first": "molly",
                "last": "edwards"
            },
            "location": {
                "street": "7466 new road",
                "city": "brighton and hove",
                "state": "cambridgeshire",
                "postcode": "J9H 8JB"
            },
            "picture": {
                "large": "https://randomuser.me/api/portraits/women/68.jpg",
                "medium": "https://randomuser.me/api/portraits/med/women/68.jpg",
                "thumbnail": "https://randomuser.me/api/portraits/thumb/women/68.jpg"
            },
            "nat": "GB"
        },
        {
            "name": {
                "title": "miss",
                "first": "izzie",
                "last": "byrd"
            },
            "location": {
                "street": "4718 the avenue",
                "city": "coventry",
                "state": "derbyshire",
                "postcode": "SX4 5SA"
            },
            "picture": {
                "large": "https://randomuser.me/api/portraits/women/10.jpg",
                "medium": "https://randomuser.me/api/portraits/med/women/10.jpg",
                "thumbnail": "https://randomuser.me/api/portraits/thumb/women/10.jpg"
            },
            "nat": "GB"
        },
        {
            "name": {
                "title": "mrs",
                "first": "johanne",
                "last": "pedersen"
            },
            "location": {
                "street": "7282 nygade",
                "city": "billum",
                "state": "midtjylland",
                "postcode": 95596
            },
            "picture": {
                "large": "https://randomuser.me/api/portraits/women/75.jpg",
                "medium": "https://randomuser.me/api/portraits/med/women/75.jpg",
                "thumbnail": "https://randomuser.me/api/portraits/thumb/women/75.jpg"
            },
            "nat": "DK"
        },
        {
            "name": {
                "title": "mrs",
                "first": "liva",
                "last": "madsen"
            },
            "location": {
                "street": "5595 grønlandsvej",
                "city": "nr åby",
                "state": "danmark",
                "postcode": 90427
            },
            "picture": {
                "large": "https://randomuser.me/api/portraits/women/18.jpg",
                "medium": "https://randomuser.me/api/portraits/med/women/18.jpg",
                "thumbnail": "https://randomuser.me/api/portraits/thumb/women/18.jpg"
            },
            "nat": "DK"
        },
        {
            "name": {
                "title": "ms",
                "first": "grace",
                "last": "roberts"
            },
            "location": {
                "street": "2022 highfield road",
                "city": "lisburn",
                "state": "warwickshire",
                "postcode": "SK5X 2SG"
            },
            "picture": {
                "large": "https://randomuser.me/api/portraits/women/88.jpg",
                "medium": "https://randomuser.me/api/portraits/med/women/88.jpg",
                "thumbnail": "https://randomuser.me/api/portraits/thumb/women/88.jpg"
            },
            "nat": "GB"
        },
        {
            "name": {
                "title": "mrs",
                "first": "marie",
                "last": "christiansen"
            },
            "location": {
                "street": "7129 byvej",
                "city": "sandved",
                "state": "midtjylland",
                "postcode": 53447
            },
            "picture": {
                "large": "https://randomuser.me/api/portraits/women/30.jpg",
                "medium": "https://randomuser.me/api/portraits/med/women/30.jpg",
                "thumbnail": "https://randomuser.me/api/portraits/thumb/women/30.jpg"
            },
            "nat": "DK"
        },
        {
            "name": {
                "title": "ms",
                "first": "nicky",
                "last": "jacobs"
            },
            "location": {
                "street": "2276 victoria street",
                "city": "stoke-on-trent",
                "state": "county londonderry",
                "postcode": "BE7 6UP"
            },
            "picture": {
                "large": "https://randomuser.me/api/portraits/women/51.jpg",
                "medium": "https://randomuser.me/api/portraits/med/women/51.jpg",
                "thumbnail": "https://randomuser.me/api/portraits/thumb/women/51.jpg"
            },
            "nat": "GB"
        },
        {
            "name": {
                "title": "ms",
                "first": "maëlia",
                "last": "denis"
            },
            "location": {
                "street": "2633 quai chauveau",
                "city": "le mans",
                "state": "loire",
                "postcode": 34560
            },
            "picture": {
                "large": "https://randomuser.me/api/portraits/women/20.jpg",
                "medium": "https://randomuser.me/api/portraits/med/women/20.jpg",
                "thumbnail": "https://randomuser.me/api/portraits/thumb/women/20.jpg"
            },
            "nat": "FR"
        },
        {
            "name": {
                "title": "miss",
                "first": "debbie",
                "last": "howell"
            },
            "location": {
                "street": "3154 church lane",
                "city": "newcastle upon tyne",
                "state": "east sussex",
                "postcode": "QB9 7BL"
            },
            "picture": {
                "large": "https://randomuser.me/api/portraits/women/30.jpg",
                "medium": "https://randomuser.me/api/portraits/med/women/30.jpg",
                "thumbnail": "https://randomuser.me/api/portraits/thumb/women/30.jpg"
            },
            "nat": "GB"
        },
        {
            "name": {
                "title": "ms",
                "first": "valentine",
                "last": "moreau"
            },
            "location": {
                "street": "6285 rue du dauphiné",
                "city": "rouen",
                "state": "manche",
                "postcode": 69439
            },
            "picture": {
                "large": "https://randomuser.me/api/portraits/women/29.jpg",
                "medium": "https://randomuser.me/api/portraits/med/women/29.jpg",
                "thumbnail": "https://randomuser.me/api/portraits/thumb/women/29.jpg"
            },
            "nat": "FR"
        },
        {
            "name": {
                "title": "mrs",
                "first": "sophie",
                "last": "leclerc"
            },
            "location": {
                "street": "1226 rue abel-gance",
                "city": "aix-en-provence",
                "state": "guadeloupe",
                "postcode": 66150
            },
            "picture": {
                "large": "https://randomuser.me/api/portraits/women/45.jpg",
                "medium": "https://randomuser.me/api/portraits/med/women/45.jpg",
                "thumbnail": "https://randomuser.me/api/portraits/thumb/women/45.jpg"
            },
            "nat": "FR"
        }
    ],
    "info": {
        "seed": "0a86f7f9fce9313f",
        "results": 50,
        "page": 1,
        "version": "1.1"
    }
}