{
    "results": [
        {
            "name": {
                "title": "mr",
                "first": "sebastian",
                "last": "poulsen"
            },
            "location": {
                "street": "8522 hyldevej",
                "city": "gjern",
                "state": "syddanmark",
                "postcode": 78822
            },
            "picture": {
                "large": "https://randomuser.me/api/portraits/men/37.jpg",
                "medium": "https://randomuser.me/api/portraits/med/men/37.jpg",
                "thumbnail": "https://randomuser.me/api/portraits/thumb/men/37.jpg"
            },
            "nat": "DK"
        },
        {
            "name": {
                "title": "mr",
                "first": "magnus",
                "last": "petersen"
            },
            "location": {
                "street": "4437 skjernvej",
                "city": "sandved",
                "state": "sjælland",
                "postcode": 61045
            },
            "picture": {
                "large": "https://randomuser.me/api/portraits/men/5.jpg",
                "medium": "https://randomuser.me/api/portraits/med/men/5.jpg",
                "thumbnail": "https://randomuser.me/api/portraits/thumb/men/5.jpg"
            },
            "nat": "DK"
        },
        {
            "name": {
                "title": "mr",
                "first": "christian",
                "last": "nielsen"
            },
            "location": {
                "street": "2089 bygaden",
                "city": "sundby/erslev",
                "state": "danmark",
                "postcode": 25423
            },
            "picture": {
                "large": "https://randomuser.me/api/portraits/men/79.jpg",
                "medium": "https://randomuser.me/api/portraits/med/men/79.jpg",
                "thumbnail": "https://randomuser.me/api/portraits/thumb/men/79.jpg"
            },
            "nat": "DK"
        },
        {
            "name": {
                "title": "mr",
                "first": "enrique",
                "last": "bryant"
            },
            "location": {
                "street": "8276 park lane",
                "city": "canterbury",
                "state": "northumberland",
                "postcode": "IB99 0TE"
            },
            "picture": {
                "large": "https://randomuser.me/api/portraits/men/15.jpg",
                "medium": "https://randomuser.me/api/portraits/med/men/15.jpg",
                "thumbnail": "https://randomuser.me/api/portraits/thumb/men/15.jpg"
            },
            "nat": "GB"
        },
        {
            "name": {
                "title": "mr",
                "first": "clifford",
                "last": "walters"
            },
            "location": {
                "street": "9114 w belt line rd",
                "city": "san mateo",
                "state": "california",
                "postcode": 99731
            },
            "picture": {
                "large": "https://randomuser.me/api/portraits/men/47.jpg",
                "medium": "https://randomuser.me/api/portraits/med/men/47.jpg",
                "thumbnail": "https://randomuser.me/api/portraits/thumb/men/47.jpg"
            },
            "nat": "US"
        },
        {
            "name": {
                "title": "mr",
                "first": "jeppe",
                "last": "mortensen"
            },
            "location": {
                "street": "9917 akacievej",
                "city": "københavn n",
                "state": "danmark",
                "postcode": 81084
            },
            "picture": {
                "large": "https://randomuser.me/api/portraits/men/7.jpg",
                "medium": "https://randomuser.me/api/portraits/med/men/7.jpg",
                "thumbnail": "https://randomuser.me/api/portraits/thumb/men/7.jpg"
            },
            "nat": "DK"
        },
        {
            "name": {
                "title": "mr",
                "first": "maxwell",
                "last": "russell"
            },
            "location": {
                "street": "9058 albert road",
                "city": "worcester",
                "state": "buckinghamshire",
                "postcode": "XM8 8SF"
            },
            "picture": {
                "large": "https://randomuser.me/api/portraits/men/56.jpg",
                "medium": "https://randomuser.me/api/portraits/med/men/56.jpg",
                "thumbnail": "https://randomuser.me/api/portraits/thumb/men/56.jpg"
            },
            "nat": "GB"
        },
        {
            "name": {
                "title": "mr",
                "first": "herbert",
                "last": "morris"
            },
            "location": {
                "street": "7548 railroad st",
                "city": "bridgeport",
                "state": "west virginia",
                "postcode": 33659
            },
            "picture": {
                "large": "https://randomuser.me/api/portraits/men/50.jpg",
                "medium": "https://randomuser.me/api/portraits/med/men/50.jpg",
                "thumbnail": "https://randomuser.me/api/portraits/thumb/men/50.jpg"
            },
            "nat": "US"
        },
        {
            "name": {
                "title": "mr",
                "first": "charly",
                "last": "joly"
            },
            "location": {
                "street": "7087 montée saint-barthélémy",
                "city": "grenoble",
                "state": "haute-garonne",
                "postcode": 14506
            },
            "picture": {
                "large": "https://randomuser.me/api/portraits/men/71.jpg",
                "medium": "https://randomuser.me/api/portraits/med/men/71.jpg",
                "thumbnail": "https://randomuser.me/api/portraits/thumb/men/71.jpg"
            },
            "nat": "FR"
        },
        {
            "name": {
                "title": "mr",
                "first": "elouan",
                "last": "dufour"
            },
            "location": {
                "street": "4120 rue du bât-d'argent",
                "city": "mulhouse",
                "state": "loiret",
                "postcode": 56106
            },
            "picture": {
                "large": "https://randomuser.me/api/portraits/men/1.jpg",
                "medium": "https://randomuser.me/api/portraits/med/men/1.jpg",
                "thumbnail": "https://randomuser.me/api/portraits/thumb/men/1.jpg"
            },
            "nat": "FR"
        },
        {
            "name": {
                "title": "mr",
                "first": "erik",
                "last": "torres"
            },
            "location": {
                "street": "1760 queensway",
                "city": "manchester",
                "state": "gwent",
                "postcode": "VP9 3PH"
            },
            "picture": {
                "large": "https://randomuser.me/api/portraits/men/57.jpg",
                "medium": "https://randomuser.me/api/portraits/med/men/57.jpg",
                "thumbnail": "https://randomuser.me/api/portraits/thumb/men/57.jpg"
            },
            "nat": "GB"
        },
        {
            "name": {
                "title": "mr",
                "first": "andrew",
                "last": "hale"
            },
            "location": {
                "street": "9468 queen street",
                "city": "kingston upon hull",
                "state": "west sussex",
                "postcode": "KV3 1YN"
            },
            "picture": {
                "large": "https://randomuser.me/api/portraits/men/10.jpg",
                "medium": "https://randomuser.me/api/portraits/med/men/10.jpg",
                "thumbnail": "https://randomuser.me/api/portraits/thumb/men/10.jpg"
            },
            "nat": "GB"
        },
        {
            "name": {
                "title": "mr",
                "first": "kurt",
                "last": "larson"
            },
            "location": {
                "street": "1914 valwood pkwy",
                "city": "wichita",
                "state": "hawaii",
                "postcode": 96898
            },
            "picture": {
                "large": "https://randomuser.me/api/portraits/men/94.jpg",
                "medium": "https://randomuser.me/api/portraits/med/men/94.jpg",
                "thumbnail": "https://randomuser.me/api/portraits/thumb/men/94.jpg"
            },
            "nat": "US"
        },
        {
            "name": {
                "title": "mr",
                "first": "christopher",
                "last": "cook"
            },
            "location": {
                "street": "9217 railroad st",
                "city": "cedar rapids",
                "state": "idaho",
                "postcode": 64959
            },
            "picture": {
                "large": "https://randomuser.me/api/portraits/men/16.jpg",
                "medium": "https://randomuser.me/api/portraits/med/men/16.jpg",
                "thumbnail": "https://randomuser.me/api/portraits/thumb/men/16.jpg"
            },
            "nat": "US"
        },
        {
            "name": {
                "title": "mr",
                "first": "joe",
                "last": "johnston"
            },
            "location": {
                "street": "4042 spring hill rd",
                "city": "bernalillo",
                "state": "connecticut",
                "postcode": 19777
            },
            "picture": {
                "large": "https://randomuser.me/api/portraits/men/90.jpg",
                "medium": "https://randomuser.me/api/portraits/med/men/90.jpg",
                "thumbnail": "https://randomuser.me/api/portraits/thumb/men/90.jpg"
            },
            "nat": "US"
        },
        {
            "name": {
                "title": "mr",
                "first": "côme",
                "last": "lemaire"
            },
            "location": {
                "street": "2659 rue principale",
                "city": "roubaix",
                "state": "ille-et-vilaine",
                "postcode": 38139
            },
            "picture": {
                "large": "https://randomuser.me/api/portraits/men/80.jpg",
                "medium": "https://randomuser.me/api/portraits/med/men/80.jpg",
                "thumbnail": "https://randomuser.me/api/portraits/thumb/men/80.jpg"
            },
            "nat": "FR"
        },
        {
            "name": {
                "title": "mr",
                "first": "lenny",
                "last": "berger"
            },
            "location": {
                "street": "4380 rue bossuet",
                "city": "rueil-malmaison",
                "state": "maine-et-loire",
                "postcode": 92266
            },
            "picture": {
                "large": "https://randomuser.me/api/portraits/men/13.jpg",
                "medium": "https://randomuser.me/api/portraits/med/men/13.jpg",
                "thumbnail": "https://randomuser.me/api/portraits/thumb/men/13.jpg"
            },
            "nat": "FR"
        },
        {
            "name": {
                "title": "mr",
                "first": "juan",
                "last": "carroll"
            },
            "location": {
                "street": "3864 new road",
                "city": "coventry",
                "state": "clwyd",
                "postcode": "N7 2SE"
            },
            "picture": {
                "large": "https://randomuser.me/api/portraits/men/19.jpg",
                "medium": "https://randomuser.me/api/portraits/med/men/19.jpg",
                "thumbnail": "https://randomuser.me/api/portraits/thumb/men/19.jpg"
            },
            "nat": "GB"
        },
        {
            "name": {
                "title": "mr",
                "first": "jerome",
                "last": "nelson"
            },
            "location": {
                "street": "8622 northaven rd",
                "city": "simi valley",
                "state": "north dakota",
                "postcode": 33482
            },
            "picture": {
                "large": "https://randomuser.me/api/portraits/men/35.jpg",
                "medium": "https://randomuser.me/api/portraits/med/men/35.jpg",
                "thumbnail": "https://randomuser.me/api/portraits/thumb/men/35.jpg"
            },
            "nat": "US"
        },
        {
            "name": {
                "title": "mr",
                "first": "troy",
                "last": "sanders"
            },
            "location": {
                "street": "5963 park avenue",
                "city": "nottingham",
                "state": "tayside",
                "postcode": "B8 4DF"
            },
            "picture": {
                "large": "https://randomuser.me/api/portraits/men/74.jpg",
                "medium": "https://randomuser.me/api/portraits/med/men/74.jpg",
                "thumbnail": "https://randomuser.me/api/portraits/thumb/men/74.jpg"
            },
            "nat": "GB"
        },
        {
            "name": {
                "title": "mr",
                "first": "milo",
                "last": "fournier"
            },
            "location": {
                "street": "3941 rue du moulin",
                "city": "colombes",
                "state": "bouches-du-rhône",
                "postcode": 78754
            },
            "picture": {
                "large": "https://randomuser.me/api/portraits/men/66.jpg",
                "medium": "https://randomuser.me/api/portraits/med/men/66.jpg",
                "thumbnail": "https://randomuser.me/api/portraits/thumb/men/66.jpg"
            },
            "nat": "FR"
        },
        {
            "name": {
                "title": "mr",
                "first": "théo",
                "last": "fleury"
            },
            "location": {
                "street": "2574 avenue de la république",
                "city": "limoges",
                "state": "eure",
                "postcode": 54553
            },
            "picture": {
                "large": "https://randomuser.me/api/portraits/men/6.jpg",
                "medium": "https://randomuser.me/api/portraits/med/men/6.jpg",
                "thumbnail": "https://randomuser.me/api/portraits/thumb/men/6.jpg"
            },
            "nat": "FR"
        },
        {
            "name": {
                "title": "mr",
                "first": "micheal",
                "last": "grant"
            },
            "location": {
                "street": "7822 st. john’s road",
                "city": "belfast",
                "state": "bedfordshire",
                "postcode": "RS4 8GZ"
            },
            "picture": {
                "large": "https://randomuser.me/api/portraits/men/35.jpg",
                "medium": "https://randomuser.me/api/portraits/med/men/35.jpg",
                "thumbnail": "https://randomuser.me/api/portraits/thumb/men/35.jpg"
            },
            "nat": "GB"
        },
        {
            "name": {
                "title": "mr",
                "first": "felix",
                "last": "olsen"
            },
            "location": {
                "street": "3663 margrethevej",
                "city": "sørvad",
                "state": "nordjylland",
                "postcode": 63675
            },
            "picture": {
                "large": "https://randomuser.me/api/portraits/men/56.jpg",
                "medium": "https://randomuser.me/api/portraits/med/men/56.jpg",
                "thumbnail": "https://randomuser.me/api/portraits/thumb/men/56.jpg"
            },
            "nat": "DK"
        },
        {
            "name": {
                "title": "mr",
                "first": "mike",
                "last": "austin"
            },
            "location": {
                "street": "5567 groveland terrace",
                "city": "bueblo",
                "state": "oklahoma",
                "postcode": 98224
            },
            "picture": {
                "large": "https://randomuser.me/api/portraits/men/34.jpg",
                "medium": "https://randomuser.me/api/portraits/med/men/34.jpg",
                "thumbnail": "https://randomuser.me/api/portraits/thumb/men/34.jpg"
            },
            "nat": "US"
        },
        {
            "name": {
                "title": "mr",
                "first": "villads",
                "last": "olsen"
            },
            "location": {
                "street": "9735 højvangsvej",
                "city": "brøndby strand",
                "state": "midtjylland",
                "postcode": 66411
            },
            "picture": {
                "large": "https://randomuser.me/api/portraits/men/65.jpg",
                "medium": "https://randomuser.me/api/portraits/med/men/65.jpg",
                "thumbnail": "https://randomuser.me/api/portraits/thumb/men/65.jpg"
            },
            "nat": "DK"
        },
        {
            "name": {
                "title": "mr",
                "first": "gregory",
                "last": "may"
            },
            "location": {
                "street": "1508 northaven rd",
                "city": "college station",
                "state": "arizona",
                "postcode": 33561
            },
            "picture": {
                "large": "https://randomuser.me/api/portraits/men/2.jpg",
                "medium": "https://randomuser.me/api/portraits/med/men/2.jpg",
                "thumbnail": "https://randomuser.me/api/portraits/thumb/men/2.jpg"
            },
            "nat": "US"
        },
        {
            "name": {
                "title": "mr",
                "first": "noah",
                "last": "petersen"
            },
            "location": {
                "street": "2432 apollovej",
                "city": "nimtofte",
                "state": "hovedstaden",
                "postcode": 15180
            },
            "picture": {
                "large": "https://randomuser.me/api/portraits/men/36.jpg",
                "medium": "https://randomuser.me/api/portraits/med/men/36.jpg",
                "thumbnail": "https://randomuser.me/api/portraits/thumb/men/36.jpg"
            },
            "nat": "DK"
        },
        {
            "name": {
                "title": "mr",
                "first": "gerald",
                "last": "johnston"
            },
            "location": {
                "street": "3352 queensway",
                "city": "lichfield",
                "state": "kent",
                "postcode": "ME44 1QA"
            },
            "picture": {
                "large": "https://randomuser.me/api/portraits/men/39.jpg",
                "medium": "https://randomuser.me/api/portraits/med/men/39.jpg",
                "thumbnail": "https://randomuser.me/api/portraits/thumb/men/39.jpg"
            },
            "nat": "GB"
        },
        {
            "name": {
                "title": "mr",
                "first": "lenny",
                "last": "lemaire"
            },
            "location": {
                "street": "4958 cours charlemagne",
                "city": "bordeaux",
                "state": "loire-atlantique",
                "postcode": 53098
            },
            "picture": {
                "large": "https://randomuser.me/api/portraits/men/17.jpg",
                "medium": "https://randomuser.me/api/portraits/med/men/17.jpg",
                "thumbnail": "https://randomuser.me/api/portraits/thumb/men/17.jpg"
            },
            "nat": "FR"
        },
        {
            "name": {
                "title": "mr",
                "first": "angel",
                "last": "robertson"
            },
            "location": {
                "street": "1936 forest ln",
                "city": "richardson",
                "state": "massachusetts",
                "postcode": 30268
            },
            "picture": {
                "large": "https://randomuser.me/api/portraits/men/84.jpg",
                "medium": "https://randomuser.me/api/portraits/med/men/84.jpg",
                "thumbnail": "https://randomuser.me/api/portraits/thumb/men/84.jpg"
            },
            "nat": "US"
        },
        {
            "name": {
                "title": "mr",
                "first": "harvey",
                "last": "sullivan"
            },
            "location": {
                "street": "1569 groveland terrace",
                "city": "hampton",
                "state": "arizona",
                "postcode": 15432
            },
            "picture": {
                "large": "https://randomuser.me/api/portraits/men/20.jpg",
                "medium": "https://randomuser.me/api/portraits/med/men/20.jpg",
                "thumbnail": "https://randomuser.me/api/portraits/thumb/men/20.jpg"
            },
            "nat": "US"
        },
        {
            "name": {
                "title": "mr",
                "first": "christoffer",
                "last": "sørensen"
            },
            "location": {
                "street": "1064 hybenvej",
                "city": "øster assels",
                "state": "midtjylland",
                "postcode": 92347
            },
            "picture": {
                "large": "https://randomuser.me/api/portraits/men/41.jpg",
                "medium": "https://randomuser.me/api/portraits/med/men/41.jpg",
                "thumbnail": "https://randomuser.me/api/portraits/thumb/men/41.jpg"
            },
            "nat": "DK"
        },
        {
            "name": {
                "title": "mr",
                "first": "mikkel",
                "last": "møller"
            },
            "location": {
                "street": "3511 stengade",
                "city": "nykøbing sj.",
                "state": "hovedstaden",
                "postcode": 82784
            },
            "picture": {
                "large": "https://randomuser.me/api/portraits/men/26.jpg",
                "medium": "https://randomuser.me/api/portraits/med/men/26.jpg",
                "thumbnail": "https://randomuser.me/api/portraits/thumb/men/26.jpg"
            },
            "nat": "DK"
        },
        {
            "name": {
                "title": "mr",
                "first": "guillaume",
                "last": "dufour"
            },
            "location": {
                "street": "6295 rue du château",
                "city": "dijon",
                "state": "meurthe-et-moselle",
                "postcode": 88262
            },
            "picture": {
                "large": "https://randomuser.me/api/portraits/men/76.jpg",
                "medium": "https://randomuser.me/api/portraits/med/men/76.jpg",
                "thumbnail": "https://randomuser.me/api/portraits/thumb/men/76.jpg"
            },
            "nat": "FR"
        },
        {
            "name": {
                "title": "mr",
                "first": "herman",
                "last": "little"
            },
            "location": {
                "street": "6757 w sherman dr",
                "city": "las vegas",
                "state": "new york",
                "postcode": 47986
            },
            "picture": {
                "large": "https://randomuser.me/api/portraits/men/42.jpg",
                "medium": "https://randomuser.me/api/portraits/med/men/42.jpg",
                "thumbnail": "https://randomuser.me/api/portraits/thumb/men/42.jpg"
            },
            "nat": "US"
        },
        {
            "name": {
                "title": "mr",
                "first": "elliot",
                "last": "morris"
            },
            "location": {
                "street": "4979 mill lane",
                "city": "lincoln",
                "state": "humberside",
                "postcode": "NM8 2GT"
            },
            "picture": {
                "large": "https://randomuser.me/api/portraits/men/41.jpg",
                "medium": "https://randomuser.me/api/portraits/med/men/41.jpg",
                "thumbnail": "https://randomuser.me/api/portraits/thumb/men/41.jpg"
            },
            "nat": "GB"
        },
        {
            "name": {
                "title": "mr",
                "first": "edouard",
                "last": "lemaire"
            },
            "location": {
                "street": "1925 rue dugas-montbel",
                "city": "créteil",
                "state": "pyrénées-orientales",
                "postcode": 21842
            },
            "picture": {
                "large": "https://randomuser.me/api/portraits/men/64.jpg",
                "medium": "https://randomuser.me/api/portraits/med/men/64.jpg",
                "thumbnail": "https://randomuser.me/api/portraits/thumb/men/64.jpg"
            },
            "nat": "FR"
        },
        {
            "name": {
                "title": "mr",
                "first": "karl",
                "last": "garcia"
            },
            "location": {
                "street": "8225 stanley road",
                "city": "bristol",
                "state": "kent",
                "postcode": "T95 8SD"
            },
            "picture": {
                "large": "https://randomuser.me/api/portraits/men/19.jpg",
                "medium": "https://randomuser.me/api/portraits/med/men/19.jpg",
                "thumbnail": "https://randomuser.me/api/portraits/thumb/men/19.jpg"
            },
            "nat": "GB"
        },
        {
            "name": {
                "title": "mr",
                "first": "thiago",
                "last": "bernard"
            },
            "location": {
                "street": "1562 rue de l'abbé-rousselot",
                "city": "strasbourg",
                "state": "hérault",
                "postcode": 47787
            },
            "picture": {
                "large": "https://randomuser.me/api/portraits/men/84.jpg",
                "medium": "https://randomuser.me/api/portraits/med/men/84.jpg",
                "thumbnail": "https://randomuser.me/api/portraits/thumb/men/84.jpg"
            },
            "nat": "FR"
        },
        {
            "name": {
                "title": "mr",
                "first": "daryl",
                "last": "burke"
            },
            "location": {
                "street": "7375 main street",
                "city": "lisburn",
                "state": "rutland",
                "postcode": "U8U 7LN"
            },
            "picture": {
                "large": "https://randomuser.me/api/portraits/men/46.jpg",
                "medium": "https://randomuser.me/api/portraits/med/men/46.jpg",
                "thumbnail": "https://randomuser.me/api/portraits/thumb/men/46.jpg"
            },
            "nat": "GB"
        },
        {
            "name": {
                "title": "mr",
                "first": "simon",
                "last": "rasmussen"
            },
            "location": {
                "street": "7423 niels bohrs vej",
                "city": "gjern",
                "state": "midtjylland",
                "postcode": 43123
            },
            "picture": {
                "large": "https://randomuser.me/api/portraits/men/25.jpg",
                "medium": "https://randomuser.me/api/portraits/med/men/25.jpg",
                "thumbnail": "https://randomuser.me/api/portraits/thumb/men/25.jpg"
            },
            "nat": "DK"
        },
        {
            "name": {
                "title": "mr",
                "first": "matt",
                "last": "ramos"
            },
            "location": {
                "street": "1589 station road",
                "city": "wells",
                "state": "bedfordshire",
                "postcode": "P1P 0RB"
            },
            "picture": {
                "large": "https://randomuser.me/api/portraits/men/85.jpg",
                "medium": "https://randomuser.me/api/portraits/med/men/85.jpg",
                "thumbnail": "https://randomuser.me/api/portraits/thumb/men/85.jpg"
            },
            "nat": "GB"
        },
        {
            "name": {
                "title": "mr",
                "first": "gavin",
                "last": "long"
            },
            "location": {
                "street": "6340 pecan acres ln",
                "city": "princeton",
                "state": "wyoming",
                "postcode": 98757
            },
            "picture": {
                "large": "https://randomuser.me/api/portraits/men/19.jpg",
                "medium": "https://randomuser.me/api/portraits/med/men/19.jpg",
                "thumbnail": "https://randomuser.me/api/portraits/thumb/men/19.jpg"
            },
            "nat": "US"
        },
        {
            "name": {
                "title": "mr",
                "first": "ian",
                "last": "davidson"
            },
            "location": {
                "street": "9047 hamilton ave",
                "city": "indianapolis",
                "state": "new mexico",
                "postcode": 75656
            },
            "picture": {
                "large": "https://randomuser.me/api/portraits/men/51.jpg",
                "medium": "https://randomuser.me/api/portraits/med/men/51.jpg",
                "thumbnail": "https://randomuser.me/api/portraits/thumb/men/51.jpg"
            },
            "nat": "US"
        },
        {
            "name": {
                "title": "mr",
                "first": "ugo",
                "last": "renard"
            },
            "location": {
                "street": "4193 rue de l'abbé-patureau",
                "city": "le havre",
                "state": "paris",
                "postcode": 55360
            },
            "picture": {
                "large": "https://randomuser.me/api/portraits/men/2.jpg",
                "medium": "https://randomuser.me/api/portraits/med/men/2.jpg",
                "thumbnail": "https://randomuser.me/api/portraits/thumb/men/2.jpg"
            },
            "nat": "FR"
        },
        {
            "name": {
                "title": "mr",
                "first": "felix",
                "last": "nielsen"
            },
            "location": {
                "street": "1062 mariehøj",
                "city": "københavn ø",
                "state": "nordjylland",
                "postcode": 24764
            },
            "picture": {
                "large": "https://randomuser.me/api/portraits/men/16.jpg",
                "medium": "https://randomuser.me/api/portraits/med/men/16.jpg",
                "thumbnail": "https://randomuser.me/api/portraits/thumb/men/16.jpg"
            },
            "nat": "DK"
        },
        {
            "name": {
                "title": "mr",
                "first": "joshua",
                "last": "renaud"
            },
            "location": {
                "street": "7090 cours charlemagne",
                "city": "champigny-sur-marne",
                "state": "haute-loire",
                "postcode": 75180
            },
            "picture": {
                "large": "https://randomuser.me/api/portraits/men/13.jpg",
                "medium": "https://randomuser.me/api/portraits/med/men/13.jpg",
                "thumbnail": "https://randomuser.me/api/portraits/thumb/men/13.jpg"
            },
            "nat": "FR"
        },
        {
            "name": {
                "title": "mr",
                "first": "zachary",
                "last": "davidson"
            },
            "location": {
                "street": "1524 new street",
                "city": "exeter",
                "state": "tayside",
                "postcode": "W95 5LH"
            },
            "picture": {
                "large": "https://randomuser.me/api/portraits/men/5.jpg",
                "medium": "https://randomuser.me/api/portraits/med/men/5.jpg",
                "thumbnail": "https://randomuser.me/api/portraits/thumb/men/5.jpg"
            },
            "nat": "GB"
        },
        {
            "name": {
                "title": "mr",
                "first": "estéban",
                "last": "muller"
            },
            "location": {
                "street": "5739 rue de l'abbé-carton",
                "city": "avignon",
                "state": "vaucluse",
                "postcode": 25892
            },
            "picture": {
                "large": "https://randomuser.me/api/portraits/men/72.jpg",
                "medium": "https://randomuser.me/api/portraits/med/men/72.jpg",
                "thumbnail": "https://randomuser.me/api/portraits/thumb/men/72.jpg"
            },
            "nat": "FR"
        }
    ],
    "info": {
        "seed": "e88311bbf5b88caf",
        "results": 50,
        "page": 1,
        "version": "1.1"
    }
}