{
    "results": [
        {
            "name": {
                "title": "ms",
                "first": "lise",
                "last": "lemaire"
            },
            "location": {
                "street": "6873 place de l'europe",
                "city": "rueil-malmaison",
                "state": "aude",
                "postcode": 44635
            },
            "picture": {
                "large": "https://randomuser.me/api/portraits/women/2.jpg",
                "medium": "https://randomuser.me/api/portraits/med/women/2.jpg",
                "thumbnail": "https://randomuser.me/api/portraits/thumb/women/2.jpg"
            },
            "nat": "FR"
        },
        {
            "name": {
                "title": "ms",
                "first": "barbara",
                "last": "ross"
            },
            "location": {
                "street": "2513 queensway",
                "city": "salisbury",
                "state": "northumberland",
                "postcode": "O4 9SW"
            },
            "picture": {
                "large": "https://randomuser.me/api/portraits/women/45.jpg",
                "medium": "https://randomuser.me/api/portraits/med/women/45.jpg",
                "thumbnail": "https://randomuser.me/api/portraits/thumb/women/45.jpg"
            },
            "nat": "GB"
        },
        {
            "name": {
                "title": "mr",
                "first": "randy",
                "last": "thomas"
            },
            "location": {
                "street": "4590 pecan acres ln",
                "city": "cape coral",
                "state": "maine",
                "postcode": 96750
            },
            "picture": {
                "large": "https://randomuser.me/api/portraits/men/32.jpg",
                "medium": "https://randomuser.me/api/portraits/med/men/32.jpg",
                "thumbnail": "https://randomuser.me/api/portraits/thumb/men/32.jpg"
            },
            "nat": "US"
        },
        {
            "name": {
                "title": "ms",
                "first": "holly",
                "last": "walker"
            },
            "location": {
                "street": "2618 school lane",
                "city": "nottingham",
                "state": "cleveland",
                "postcode": "LS11 2HN"
            },
            "picture": {
                "large": "https://randomuser.me/api/portraits/women/26.jpg",
                "medium": "https://randomuser.me/api/portraits/med/women/26.jpg",
                "thumbnail": "https://randomuser.me/api/portraits/thumb/women/26.jpg"
            },
            "nat": "GB"
        },
        {
            "name": {
                "title": "mr",
                "first": "donald",
                "last": "green"
            },
            "location": {
                "street": "4537 forest ln",
                "city": "irving",
                "state": "maryland",
                "postcode": 89610
            },
            "picture": {
                "large": "https://randomuser.me/api/portraits/men/32.jpg",
                "medium": "https://randomuser.me/api/portraits/med/men/32.jpg",
                "thumbnail": "https://randomuser.me/api/portraits/thumb/men/32.jpg"
            },
            "nat": "US"
        },
        {
            "name": {
                "title": "mr",
                "first": "rick",
                "last": "clarke"
            },
            "location": {
                "street": "2311 highfield road",
                "city": "canterbury",
                "state": "dumfries and galloway",
                "postcode": "B35 2SN"
            },
            "picture": {
                "large": "https://randomuser.me/api/portraits/men/24.jpg",
                "medium": "https://randomuser.me/api/portraits/med/men/24.jpg",
                "thumbnail": "https://randomuser.me/api/portraits/thumb/men/24.jpg"
            },
            "nat": "GB"
        },
        {
            "name": {
                "title": "miss",
                "first": "amelia",
                "last": "adams"
            },
            "location": {
                "street": "8476 windsor road",
                "city": "leicester",
                "state": "warwickshire",
                "postcode": "WB1C 3AQ"
            },
            "picture": {
                "large": "https://randomuser.me/api/portraits/women/64.jpg",
                "medium": "https://randomuser.me/api/portraits/med/women/64.jpg",
                "thumbnail": "https://randomuser.me/api/portraits/thumb/women/64.jpg"
            },
            "nat": "GB"
        },
        {
            "name": {
                "title": "ms",
                "first": "nicole",
                "last": "riley"
            },
            "location": {
                "street": "7328 new street",
                "city": "dundee",
                "state": "strathclyde",
                "postcode": "SU41 2UX"
            },
            "picture": {
                "large": "https://randomuser.me/api/portraits/women/14.jpg",
                "medium": "https://randomuser.me/api/portraits/med/women/14.jpg",
                "thumbnail": "https://randomuser.me/api/portraits/thumb/women/14.jpg"
            },
            "nat": "GB"
        },
        {
            "name": {
                "title": "mrs",
                "first": "kiara",
                "last": "garcia"
            },
            "location": {
                "street": "7467 place de l'abbé-jean-lebeuf",
                "city": "saint-étienne",
                "state": "nièvre",
                "postcode": 48697
            },
            "picture": {
                "large": "https://randomuser.me/api/portraits/women/78.jpg",
                "medium": "https://randomuser.me/api/portraits/med/women/78.jpg",
                "thumbnail": "https://randomuser.me/api/portraits/thumb/women/78.jpg"
            },
            "nat": "FR"
        },
        {
            "name": {
                "title": "mr",
                "first": "chester",
                "last": "brown"
            },
            "location": {
                "street": "1484 broadway",
                "city": "cambridge",
                "state": "county londonderry",
                "postcode": "I80 5DN"
            },
            "picture": {
                "large": "https://randomuser.me/api/portraits/men/27.jpg",
                "medium": "https://randomuser.me/api/portraits/med/men/27.jpg",
                "thumbnail": "https://randomuser.me/api/portraits/thumb/men/27.jpg"
            },
            "nat": "GB"
        },
        {
            "name": {
                "title": "mr",
                "first": "adam",
                "last": "brun"
            },
            "location": {
                "street": "4464 rue paul-duvivier",
                "city": "le mans",
                "state": "somme",
                "postcode": 75897
            },
            "picture": {
                "large": "https://randomuser.me/api/portraits/men/28.jpg",
                "medium": "https://randomuser.me/api/portraits/med/men/28.jpg",
                "thumbnail": "https://randomuser.me/api/portraits/thumb/men/28.jpg"
            },
            "nat": "FR"
        },
        {
            "name": {
                "title": "mr",
                "first": "clifton",
                "last": "fuller"
            },
            "location": {
                "street": "4188 miller ave",
                "city": "redding",
                "state": "new hampshire",
                "postcode": 82230
            },
            "picture": {
                "large": "https://randomuser.me/api/portraits/men/82.jpg",
                "medium": "https://randomuser.me/api/portraits/med/men/82.jpg",
                "thumbnail": "https://randomuser.me/api/portraits/thumb/men/82.jpg"
            },
            "nat": "US"
        },
        {
            "name": {
                "title": "mrs",
                "first": "jo",
                "last": "little"
            },
            "location": {
                "street": "6756 lakeshore rd",
                "city": "greensboro",
                "state": "illinois",
                "postcode": 76412
            },
            "picture": {
                "large": "https://randomuser.me/api/portraits/women/4.jpg",
                "medium": "https://randomuser.me/api/portraits/med/women/4.jpg",
                "thumbnail": "https://randomuser.me/api/portraits/thumb/women/4.jpg"
            },
            "nat": "US"
        },
        {
            "name": {
                "title": "mr",
                "first": "timeo",
                "last": "deschamps"
            },
            "location": {
                "street": "5600 rue du stade",
                "city": "dijon",
                "state": "creuse",
                "postcode": 24557
            },
            "picture": {
                "large": "https://randomuser.me/api/portraits/men/60.jpg",
                "medium": "https://randomuser.me/api/portraits/med/men/60.jpg",
                "thumbnail": "https://randomuser.me/api/portraits/thumb/men/60.jpg"
            },
            "nat": "FR"
        },
        {
            "name": {
                "title": "mr",
                "first": "owen",
                "last": "hale"
            },
            "location": {
                "street": "1196 karen dr",
                "city": "waco",
                "state": "connecticut",
                "postcode": 11172
            },
            "picture": {
                "large": "https://randomuser.me/api/portraits/men/56.jpg",
                "medium": "https://randomuser.me/api/portraits/med/men/56.jpg",
                "thumbnail": "https://randomuser.me/api/portraits/thumb/men/56.jpg"
            },
            "nat": "US"
        },
        {
            "name": {
                "title": "miss",
                "first": "louane",
                "last": "aubert"
            },
            "location": {
                "street": "6666 place du 8 février 1962",
                "city": "nice",
                "state": "hauts-de-seine",
                "postcode": 71024
            },
            "picture": {
                "large": "https://randomuser.me/api/portraits/women/57.jpg",
                "medium": "https://randomuser.me/api/portraits/med/women/57.jpg",
                "thumbnail": "https://randomuser.me/api/portraits/thumb/women/57.jpg"
            },
            "nat": "FR"
        },
        {
            "name": {
                "title": "ms",
                "first": "sylvia",
                "last": "evans"
            },
            "location": {
                "street": "4887 poplar dr",
                "city": "clarksville",
                "state": "tennessee",
                "postcode": 79888
            },
            "picture": {
                "large": "https://randomuser.me/api/portraits/women/12.jpg",
                "medium": "https://randomuser.me/api/portraits/med/women/12.jpg",
                "thumbnail": "https://randomuser.me/api/portraits/thumb/women/12.jpg"
            },
            "nat": "US"
        },
        {
            "name": {
                "title": "ms",
                "first": "shelly",
                "last": "cooper"
            },
            "location": {
                "street": "4036 parker rd",
                "city": "greensboro",
                "state": "alaska",
                "postcode": 36397
            },
            "picture": {
                "large": "https://randomuser.me/api/portraits/women/88.jpg",
                "medium": "https://randomuser.me/api/portraits/med/women/88.jpg",
                "thumbnail": "https://randomuser.me/api/portraits/thumb/women/88.jpg"
            },
            "nat": "US"
        },
        {
            "name": {
                "title": "mr",
                "first": "willie",
                "last": "castillo"
            },
            "location": {
                "street": "1864 kings road",
                "city": "newport",
                "state": "strathclyde",
                "postcode": "KX0 2PH"
            },
            "picture": {
                "large": "https://randomuser.me/api/portraits/men/0.jpg",
                "medium": "https://randomuser.me/api/portraits/med/men/0.jpg",
                "thumbnail": "https://randomuser.me/api/portraits/thumb/men/0.jpg"
            },
            "nat": "GB"
        },
        {
            "name": {
                "title": "ms",
                "first": "rosalyn",
                "last": "stone"
            },
            "location": {
                "street": "5143 west street",
                "city": "swansea",
                "state": "derbyshire",
                "postcode": "U9 7JN"
            },
            "picture": {
                "large": "https://randomuser.me/api/portraits/women/79.jpg",
                "medium": "https://randomuser.me/api/portraits/med/women/79.jpg",
                "thumbnail": "https://randomuser.me/api/portraits/thumb/women/79.jpg"
            },
            "nat": "GB"
        },
        {
            "name": {
                "title": "mrs",
                "first": "arianna",
                "last": "douglas"
            },
            "location": {
                "street": "9719 hunters creek dr",
                "city": "carrollton",
                "state": "michigan",
                "postcode": 45854
            },
            "picture": {
                "large": "https://randomuser.me/api/portraits/women/24.jpg",
                "medium": "https://randomuser.me/api/portraits/med/women/24.jpg",
                "thumbnail": "https://randomuser.me/api/portraits/thumb/women/24.jpg"
            },
            "nat": "US"
        },
        {
            "name": {
                "title": "ms",
                "first": "deanna",
                "last": "palmer"
            },
            "location": {
                "street": "9480 brown terrace",
                "city": "fargo",
                "state": "colorado",
                "postcode": 36432
            },
            "picture": {
                "large": "https://randomuser.me/api/portraits/women/71.jpg",
                "medium": "https://randomuser.me/api/portraits/med/women/71.jpg",
                "thumbnail": "https://randomuser.me/api/portraits/thumb/women/71.jpg"
            },
            "nat": "US"
        },
        {
            "name": {
                "title": "ms",
                "first": "océane",
                "last": "colin"
            },
            "location": {
                "street": "8733 rue de cuire",
                "city": "clermont-ferrand",
                "state": "hautes-alpes",
                "postcode": 57906
            },
            "picture": {
                "large": "https://randomuser.me/api/portraits/women/39.jpg",
                "medium": "https://randomuser.me/api/portraits/med/women/39.jpg",
                "thumbnail": "https://randomuser.me/api/portraits/thumb/women/39.jpg"
            },
            "nat": "FR"
        },
        {
            "name": {
                "title": "mr",
                "first": "ronald",
                "last": "white"
            },
            "location": {
                "street": "9475 edwards rd",
                "city": "lafayette",
                "state": "rhode island",
                "postcode": 99520
            },
            "picture": {
                "large": "https://randomuser.me/api/portraits/men/15.jpg",
                "medium": "https://randomuser.me/api/portraits/med/men/15.jpg",
                "thumbnail": "https://randomuser.me/api/portraits/thumb/men/15.jpg"
            },
            "nat": "US"
        },
        {
            "name": {
                "title": "ms",
                "first": "maëly",
                "last": "renaud"
            },
            "location": {
                "street": "3234 quai charles-de-gaulle",
                "city": "argenteuil",
                "state": "meuse",
                "postcode": 32379
            },
            "picture": {
                "large": "https://randomuser.me/api/portraits/women/87.jpg",
                "medium": "https://randomuser.me/api/portraits/med/women/87.jpg",
                "thumbnail": "https://randomuser.me/api/portraits/thumb/women/87.jpg"
            },
            "nat": "FR"
        },
        {
            "name": {
                "title": "mr",
                "first": "joshua",
                "last": "montgomery"
            },
            "location": {
                "street": "9663 park road",
                "city": "bath",
                "state": "dyfed",
                "postcode": "S79 4ZW"
            },
            "picture": {
                "large": "https://randomuser.me/api/portraits/men/64.jpg",
                "medium": "https://randomuser.me/api/portraits/med/men/64.jpg",
                "thumbnail": "https://randomuser.me/api/portraits/thumb/men/64.jpg"
            },
            "nat": "GB"
        },
        {
            "name": {
                "title": "miss",
                "first": "clémence",
                "last": "david"
            },
            "location": {
                "street": "9686 place du 8 novembre 1942",
                "city": "le mans",
                "state": "seine-et-marne",
                "postcode": 98511
            },
            "picture": {
                "large": "https://randomuser.me/api/portraits/women/86.jpg",
                "medium": "https://randomuser.me/api/portraits/med/women/86.jpg",
                "thumbnail": "https://randomuser.me/api/portraits/thumb/women/86.jpg"
            },
            "nat": "FR"
        },
        {
            "name": {
                "title": "ms",
                "first": "thaïs",
                "last": "garcia"
            },
            "location": {
                "street": "1220 rue de l'église",
                "city": "saint-denis",
                "state": "vaucluse",
                "postcode": 14018
            },
            "picture": {
                "large": "https://randomuser.me/api/portraits/women/63.jpg",
                "medium": "https://randomuser.me/api/portraits/med/women/63.jpg",
                "thumbnail": "https://randomuser.me/api/portraits/thumb/women/63.jpg"
            },
            "nat": "FR"
        },
        {
            "name": {
                "title": "ms",
                "first": "evelyn",
                "last": "mendoza"
            },
            "location": {
                "street": "6262 brown terrace",
                "city": "sioux falls",
                "state": "rhode island",
                "postcode": 69002
            },
            "picture": {
                "large": "https://randomuser.me/api/portraits/women/72.jpg",
                "medium": "https://randomuser.me/api/portraits/med/women/72.jpg",
                "thumbnail": "https://randomuser.me/api/portraits/thumb/women/72.jpg"
            },
            "nat": "US"
        },
        {
            "name": {
                "title": "ms",
                "first": "katherine",
                "last": "kuhn"
            },
            "location": {
                "street": "1043 crockett st",
                "city": "pembroke pines",
                "state": "illinois",
                "postcode": 69639
            },
            "picture": {
                "large": "https://randomuser.me/api/portraits/women/84.jpg",
                "medium": "https://randomuser.me/api/portraits/med/women/84.jpg",
                "thumbnail": "https://randomuser.me/api/portraits/thumb/women/84.jpg"
            },
            "nat": "US"
        },
        {
            "name": {
                "title": "mr",
                "first": "steven",
                "last": "black"
            },
            "location": {
                "street": "4084 broadway",
                "city": "kingston upon hull",
                "state": "avon",
                "postcode": "HT0A 7HQ"
            },
            "picture": {
                "large": "https://randomuser.me/api/portraits/men/58.jpg",
                "medium": "https://randomuser.me/api/portraits/med/men/58.jpg",
                "thumbnail": "https://randomuser.me/api/portraits/thumb/men/58.jpg"
            },
            "nat": "GB"
        },
        {
            "name": {
                "title": "mr",
                "first": "gary",
                "last": "taylor"
            },
            "location": {
                "street": "7176 grange road",
                "city": "cardiff",
                "state": "dumfries and galloway",
                "postcode": "J2 5GY"
            },
            "picture": {
                "large": "https://randomuser.me/api/portraits/men/98.jpg",
                "medium": "https://randomuser.me/api/portraits/med/men/98.jpg",
                "thumbnail": "https://randomuser.me/api/portraits/thumb/men/98.jpg"
            },
            "nat": "GB"
        },
        {
            "name": {
                "title": "mr",
                "first": "kylian",
                "last": "fournier"
            },
            "location": {
                "street": "3034 rue du bât-d'argent",
                "city": "champigny-sur-marne",
                "state": "doubs",
                "postcode": 89241
            },
            "picture": {
                "large": "https://randomuser.me/api/portraits/men/90.jpg",
                "medium": "https://randomuser.me/api/portraits/med/men/90.jpg",
                "thumbnail": "https://randomuser.me/api/portraits/thumb/men/90.jpg"
            },
            "nat": "FR"
        },
        {
            "name": {
                "title": "miss",
                "first": "dana",
                "last": "collins"
            },
            "location": {
                "street": "7974 dane st",
                "city": "providence",
                "state": "illinois",
                "postcode": 11121
            },
            "picture": {
                "large": "https://randomuser.me/api/portraits/women/8.jpg",
                "medium": "https://randomuser.me/api/portraits/med/women/8.jpg",
                "thumbnail": "https://randomuser.me/api/portraits/thumb/women/8.jpg"
            },
            "nat": "US"
        },
        {
            "name": {
                "title": "mr",
                "first": "ralph",
                "last": "warren"
            },
            "location": {
                "street": "6401 springfield road",
                "city": "ripon",
                "state": "devon",
                "postcode": "I62 5AD"
            },
            "picture": {
                "large": "https://randomuser.me/api/portraits/men/4.jpg",
                "medium": "https://randomuser.me/api/portraits/med/men/4.jpg",
                "thumbnail": "https://randomuser.me/api/portraits/thumb/men/4.jpg"
            },
            "nat": "GB"
        },
        {
            "name": {
                "title": "mr",
                "first": "ethan",
                "last": "vincent"
            },
            "location": {
                "street": "7552 rue de gerland",
                "city": "montpellier",
                "state": "saône-et-loire",
                "postcode": 44080
            },
            "picture": {
                "large": "https://randomuser.me/api/portraits/men/55.jpg",
                "medium": "https://randomuser.me/api/portraits/med/men/55.jpg",
                "thumbnail": "https://randomuser.me/api/portraits/thumb/men/55.jpg"
            },
            "nat": "FR"
        },
        {
            "name": {
                "title": "mrs",
                "first": "maëlyne",
                "last": "meunier"
            },
            "location": {
                "street": "4469 rue andré-gide",
                "city": "lille",
                "state": "hauts-de-seine",
                "postcode": 43368
            },
            "picture": {
                "large": "https://randomuser.me/api/portraits/women/22.jpg",
                "medium": "https://randomuser.me/api/portraits/med/women/22.jpg",
                "thumbnail": "https://randomuser.me/api/portraits/thumb/women/22.jpg"
            },
            "nat": "FR"
        },
        {
            "name": {
                "title": "mr",
                "first": "darryl",
                "last": "harrison"
            },
            "location": {
                "street": "7877 the grove",
                "city": "plymouth",
                "state": "wiltshire",
                "postcode": "J9 7YW"
            },
            "picture": {
                "large": "https://randomuser.me/api/portraits/men/76.jpg",
                "medium": "https://randomuser.me/api/portraits/med/men/76.jpg",
                "thumbnail": "https://randomuser.me/api/portraits/thumb/men/76.jpg"
            },
            "nat": "GB"
        },
        {
            "name": {
                "title": "mr",
                "first": "adam",
                "last": "lynch"
            },
            "location": {
                "street": "4220 dogwood ave",
                "city": "akron",
                "state": "missouri",
                "postcode": 67456
            },
            "picture": {
                "large": "https://randomuser.me/api/portraits/men/55.jpg",
                "medium": "https://randomuser.me/api/portraits/med/men/55.jpg",
                "thumbnail": "https://randomuser.me/api/portraits/thumb/men/55.jpg"
            },
            "nat": "US"
        },
        {
            "name": {
                "title": "mrs",
                "first": "tess",
                "last": "hubert"
            },
            "location": {
                "street": "9782 rue paul bert",
                "city": "marseille",
                "state": "somme",
                "postcode": 81311
            },
            "picture": {
                "large": "https://randomuser.me/api/portraits/women/93.jpg",
                "medium": "https://randomuser.me/api/portraits/med/women/93.jpg",
                "thumbnail": "https://randomuser.me/api/portraits/thumb/women/93.jpg"
            },
            "nat": "FR"
        },
        {
            "name": {
                "title": "miss",
                "first": "holly",
                "last": "collins"
            },
            "location": {
                "street": "1496 stanley road",
                "city": "lincoln",
                "state": "clwyd",
                "postcode": "YK0 2BX"
            },
            "picture": {
                "large": "https://randomuser.me/api/portraits/women/15.jpg",
                "medium": "https://randomuser.me/api/portraits/med/women/15.jpg",
                "thumbnail": "https://randomuser.me/api/portraits/thumb/women/15.jpg"
            },
            "nat": "GB"
        },
        {
            "name": {
                "title": "ms",
                "first": "norah",
                "last": "adam"
            },
            "location": {
                "street": "9415 place paul-duquaire",
                "city": "tours",
                "state": "landes",
                "postcode": 11291
            },
            "picture": {
                "large": "https://randomuser.me/api/portraits/women/47.jpg",
                "medium": "https://randomuser.me/api/portraits/med/women/47.jpg",
                "thumbnail": "https://randomuser.me/api/portraits/thumb/women/47.jpg"
            },
            "nat": "FR"
        },
        {
            "name": {
                "title": "ms",
                "first": "angelina",
                "last": "fontai"
            },
            "location": {
                "street": "3264 rue du moulin",
                "city": "courbevoie",
                "state": "savoie",
                "postcode": 77229
            },
            "picture": {
                "large": "https://randomuser.me/api/portraits/women/48.jpg",
                "medium": "https://randomuser.me/api/portraits/med/women/48.jpg",
                "thumbnail": "https://randomuser.me/api/portraits/thumb/women/48.jpg"
            },
            "nat": "FR"
        },
        {
            "name": {
                "title": "mrs",
                "first": "alexandra",
                "last": "baker"
            },
            "location": {
                "street": "2308 station road",
                "city": "chichester",
                "state": "cumbria",
                "postcode": "I78 3LX"
            },
            "picture": {
                "large": "https://randomuser.me/api/portraits/women/15.jpg",
                "medium": "https://randomuser.me/api/portraits/med/women/15.jpg",
                "thumbnail": "https://randomuser.me/api/portraits/thumb/women/15.jpg"
            },
            "nat": "GB"
        },
        {
            "name": {
                "title": "ms",
                "first": "kylie",
                "last": "alvarez"
            },
            "location": {
                "street": "2035 w campbell ave",
                "city": "huntington beach",
                "state": "mississippi",
                "postcode": 21613
            },
            "picture": {
                "large": "https://randomuser.me/api/portraits/women/78.jpg",
                "medium": "https://randomuser.me/api/portraits/med/women/78.jpg",
                "thumbnail": "https://randomuser.me/api/portraits/thumb/women/78.jpg"
            },
            "nat": "US"
        },
        {
            "name": {
                "title": "ms",
                "first": "tara",
                "last": "pearson"
            },
            "location": {
                "street": "5054 nowlin rd",
                "city": "mckinney",
                "state": "delaware",
                "postcode": 72215
            },
            "picture": {
                "large": "https://randomuser.me/api/portraits/women/13.jpg",
                "medium": "https://randomuser.me/api/portraits/med/women/13.jpg",
                "thumbnail": "https://randomuser.me/api/portraits/thumb/women/13.jpg"
            },
            "nat": "US"
        },
        {
            "name": {
                "title": "mr",
                "first": "oscar",
                "last": "giraud"
            },
            "location": {
                "street": "1380 avenue des ternes",
                "city": "lille",
                "state": "nièvre",
                "postcode": 79033
            },
            "picture": {
                "large": "https://randomuser.me/api/portraits/men/94.jpg",
                "medium": "https://randomuser.me/api/portraits/med/men/94.jpg",
                "thumbnail": "https://randomuser.me/api/portraits/thumb/men/94.jpg"
            },
            "nat": "FR"
        },
        {
            "name": {
                "title": "mrs",
                "first": "eileen",
                "last": "gibson"
            },
            "location": {
                "street": "6493 n stelling rd",
                "city": "arlington",
                "state": "arizona",
                "postcode": 94938
            },
            "picture": {
                "large": "https://randomuser.me/api/portraits/women/0.jpg",
                "medium": "https://randomuser.me/api/portraits/med/women/0.jpg",
                "thumbnail": "https://randomuser.me/api/portraits/thumb/women/0.jpg"
            },
            "nat": "US"
        },
        {
            "name": {
                "title": "mrs",
                "first": "toni",
                "last": "stanley"
            },
            "location": {
                "street": "2175 prospect rd",
                "city": "murrieta",
                "state": "michigan",
                "postcode": 85512
            },
            "picture": {
                "large": "https://randomuser.me/api/portraits/women/31.jpg",
                "medium": "https://randomuser.me/api/portraits/med/women/31.jpg",
                "thumbnail": "https://randomuser.me/api/portraits/thumb/women/31.jpg"
            },
            "nat": "US"
        },
        {
            "name": {
                "title": "mrs",
                "first": "hélèna",
                "last": "gaillard"
            },
            "location": {
                "street": "5254 rue pierre-delore",
                "city": "lille",
                "state": "tarn-et-garonne",
                "postcode": 51042
            },
            "picture": {
                "large": "https://randomuser.me/api/portraits/women/48.jpg",
                "medium": "https://randomuser.me/api/portraits/med/women/48.jpg",
                "thumbnail": "https://randomuser.me/api/portraits/thumb/women/48.jpg"
            },
            "nat": "FR"
        },
        {
            "name": {
                "title": "ms",
                "first": "romy",
                "last": "barbier"
            },
            "location": {
                "street": "6531 rue abel-hovelacque",
                "city": "argenteuil",
                "state": "puy-de-dôme",
                "postcode": 18297
            },
            "picture": {
                "large": "https://randomuser.me/api/portraits/women/96.jpg",
                "medium": "https://randomuser.me/api/portraits/med/women/96.jpg",
                "thumbnail": "https://randomuser.me/api/portraits/thumb/women/96.jpg"
            },
            "nat": "FR"
        },
        {
            "name": {
                "title": "mrs",
                "first": "robin",
                "last": "lucas"
            },
            "location": {
                "street": "1604 dane st",
                "city": "north valley",
                "state": "mississippi",
                "postcode": 85605
            },
            "picture": {
                "large": "https://randomuser.me/api/portraits/women/74.jpg",
                "medium": "https://randomuser.me/api/portraits/med/women/74.jpg",
                "thumbnail": "https://randomuser.me/api/portraits/thumb/women/74.jpg"
            },
            "nat": "US"
        },
        {
            "name": {
                "title": "mrs",
                "first": "anaïs",
                "last": "rolland"
            },
            "location": {
                "street": "7548 rue paul bert",
                "city": "asnières-sur-seine",
                "state": "ariège",
                "postcode": 56064
            },
            "picture": {
                "large": "https://randomuser.me/api/portraits/women/0.jpg",
                "medium": "https://randomuser.me/api/portraits/med/women/0.jpg",
                "thumbnail": "https://randomuser.me/api/portraits/thumb/women/0.jpg"
            },
            "nat": "FR"
        },
        {
            "name": {
                "title": "mr",
                "first": "isaac",
                "last": "dixon"
            },
            "location": {
                "street": "7586 church lane",
                "city": "southampton",
                "state": "dyfed",
                "postcode": "F1V 7TZ"
            },
            "picture": {
                "large": "https://randomuser.me/api/portraits/men/44.jpg",
                "medium": "https://randomuser.me/api/portraits/med/men/44.jpg",
                "thumbnail": "https://randomuser.me/api/portraits/thumb/men/44.jpg"
            },
            "nat": "GB"
        },
        {
            "name": {
                "title": "mr",
                "first": "sacha",
                "last": "meunier"
            },
            "location": {
                "street": "7634 rue louis-blanqui",
                "city": "asnières-sur-seine",
                "state": "yvelines",
                "postcode": 13770
            },
            "picture": {
                "large": "https://randomuser.me/api/portraits/men/79.jpg",
                "medium": "https://randomuser.me/api/portraits/med/men/79.jpg",
                "thumbnail": "https://randomuser.me/api/portraits/thumb/men/79.jpg"
            },
            "nat": "FR"
        },
        {
            "name": {
                "title": "mr",
                "first": "nelson",
                "last": "oliver"
            },
            "location": {
                "street": "3319 george street",
                "city": "exeter",
                "state": "grampian",
                "postcode": "FK4 1PT"
            },
            "picture": {
                "large": "https://randomuser.me/api/portraits/men/36.jpg",
                "medium": "https://randomuser.me/api/portraits/med/men/36.jpg",
                "thumbnail": "https://randomuser.me/api/portraits/thumb/men/36.jpg"
            },
            "nat": "GB"
        },
        {
            "name": {
                "title": "mr",
                "first": "hugh",
                "last": "alexander"
            },
            "location": {
                "street": "2983 groveland terrace",
                "city": "roseburg",
                "state": "wyoming",
                "postcode": 27917
            },
            "picture": {
                "large": "https://randomuser.me/api/portraits/men/33.jpg",
                "medium": "https://randomuser.me/api/portraits/med/men/33.jpg",
                "thumbnail": "https://randomuser.me/api/portraits/thumb/men/33.jpg"
            },
            "nat": "US"
        },
        {
            "name": {
                "title": "ms",
                "first": "kaitlin",
                "last": "obrien"
            },
            "location": {
                "street": "5365 the crescent",
                "city": "sheffield",
                "state": "cleveland",
                "postcode": "WF93 6DA"
            },
            "picture": {
                "large": "https://randomuser.me/api/portraits/women/6.jpg",
                "medium": "https://randomuser.me/api/portraits/med/women/6.jpg",
                "thumbnail": "https://randomuser.me/api/portraits/thumb/women/6.jpg"
            },
            "nat": "GB"
        },
        {
            "name": {
                "title": "mrs",
                "first": "maya",
                "last": "carpentier"
            },
            "location": {
                "street": "1090 place du 8 novembre 1942",
                "city": "dijon",
                "state": "yvelines",
                "postcode": 60214
            },
            "picture": {
                "large": "https://randomuser.me/api/portraits/women/7.jpg",
                "medium": "https://randomuser.me/api/portraits/med/women/7.jpg",
                "thumbnail": "https://randomuser.me/api/portraits/thumb/women/7.jpg"
            },
            "nat": "FR"
        },
        {
            "name": {
                "title": "mr",
                "first": "luka",
                "last": "fernandez"
            },
            "location": {
                "street": "2448 rue d'abbeville",
                "city": "colombes",
                "state": "ardèche",
                "postcode": 72352
            },
            "picture": {
                "large": "https://randomuser.me/api/portraits/men/92.jpg",
                "medium": "https://randomuser.me/api/portraits/med/men/92.jpg",
                "thumbnail": "https://randomuser.me/api/portraits/thumb/men/92.jpg"
            },
            "nat": "FR"
        },
        {
            "name": {
                "title": "miss",
                "first": "amy",
                "last": "knight"
            },
            "location": {
                "street": "1810 south street",
                "city": "wakefield",
                "state": "surrey",
                "postcode": "XW7C 8BB"
            },
            "picture": {
                "large": "https://randomuser.me/api/portraits/women/82.jpg",
                "medium": "https://randomuser.me/api/portraits/med/women/82.jpg",
                "thumbnail": "https://randomuser.me/api/portraits/thumb/women/82.jpg"
            },
            "nat": "GB"
        },
        {
            "name": {
                "title": "mrs",
                "first": "anna",
                "last": "miller"
            },
            "location": {
                "street": "5594 e north st",
                "city": "oxnard",
                "state": "montana",
                "postcode": 10097
            },
            "picture": {
                "large": "https://randomuser.me/api/portraits/women/5.jpg",
                "medium": "https://randomuser.me/api/portraits/med/women/5.jpg",
                "thumbnail": "https://randomuser.me/api/portraits/thumb/women/5.jpg"
            },
            "nat": "US"
        },
        {
            "name": {
                "title": "mr",
                "first": "bryan",
                "last": "olson"
            },
            "location": {
                "street": "3539 park road",
                "city": "gloucester",
                "state": "berkshire",
                "postcode": "AC3J 2HR"
            },
            "picture": {
                "large": "https://randomuser.me/api/portraits/men/40.jpg",
                "medium": "https://randomuser.me/api/portraits/med/men/40.jpg",
                "thumbnail": "https://randomuser.me/api/portraits/thumb/men/40.jpg"
            },
            "nat": "GB"
        },
        {
            "name": {
                "title": "miss",
                "first": "lise",
                "last": "fleury"
            },
            "location": {
                "street": "1433 rue dugas-montbel",
                "city": "grenoble",
                "state": "sarthe",
                "postcode": 55476
            },
            "picture": {
                "large": "https://randomuser.me/api/portraits/women/47.jpg",
                "medium": "https://randomuser.me/api/portraits/med/women/47.jpg",
                "thumbnail": "https://randomuser.me/api/portraits/thumb/women/47.jpg"
            },
            "nat": "FR"
        },
        {
            "name": {
                "title": "mr",
                "first": "jon",
                "last": "henry"
            },
            "location": {
                "street": "8384 bruce st",
                "city": "roseburg",
                "state": "arkansas",
                "postcode": 77749
            },
            "picture": {
                "large": "https://randomuser.me/api/portraits/men/14.jpg",
                "medium": "https://randomuser.me/api/portraits/med/men/14.jpg",
                "thumbnail": "https://randomuser.me/api/portraits/thumb/men/14.jpg"
            },
            "nat": "US"
        },
        {
            "name": {
                "title": "mr",
                "first": "ronnie",
                "last": "montgomery"
            },
            "location": {
                "street": "8209 hillcrest rd",
                "city": "rochmond",
                "state": "michigan",
                "postcode": 94504
            },
            "picture": {
                "large": "https://randomuser.me/api/portraits/men/36.jpg",
                "medium": "https://randomuser.me/api/portraits/med/men/36.jpg",
                "thumbnail": "https://randomuser.me/api/portraits/thumb/men/36.jpg"
            },
            "nat": "US"
        },
        {
            "name": {
                "title": "mrs",
                "first": "sara",
                "last": "morales"
            },
            "location": {
                "street": "3804 avondale ave",
                "city": "salinas",
                "state": "ohio",
                "postcode": 12135
            },
            "picture": {
                "large": "https://randomuser.me/api/portraits/women/0.jpg",
                "medium": "https://randomuser.me/api/portraits/med/women/0.jpg",
                "thumbnail": "https://randomuser.me/api/portraits/thumb/women/0.jpg"
            },
            "nat": "US"
        },
        {
            "name": {
                "title": "miss",
                "first": "vanessa",
                "last": "gibson"
            },
            "location": {
                "street": "6963 mill road",
                "city": "dundee",
                "state": "highlands and islands",
                "postcode": "P5K 8ZA"
            },
            "picture": {
                "large": "https://randomuser.me/api/portraits/women/42.jpg",
                "medium": "https://randomuser.me/api/portraits/med/women/42.jpg",
                "thumbnail": "https://randomuser.me/api/portraits/thumb/women/42.jpg"
            },
            "nat": "GB"
        },
        {
            "name": {
                "title": "miss",
                "first": "karen",
                "last": "elliott"
            },
            "location": {
                "street": "1494 the drive",
                "city": "belfast",
                "state": "south glamorgan",
                "postcode": "G86 4XL"
            },
            "picture": {
                "large": "https://randomuser.me/api/portraits/women/18.jpg",
                "medium": "https://randomuser.me/api/portraits/med/women/18.jpg",
                "thumbnail": "https://randomuser.me/api/portraits/thumb/women/18.jpg"
            },
            "nat": "GB"
        },
        {
            "name": {
                "title": "mrs",
                "first": "courtney",
                "last": "hill"
            },
            "location": {
                "street": "6468 hunters creek dr",
                "city": "caldwell",
                "state": "alaska",
                "postcode": 24882
            },
            "picture": {
                "large": "https://randomuser.me/api/portraits/women/84.jpg",
                "medium": "https://randomuser.me/api/portraits/med/women/84.jpg",
                "thumbnail": "https://randomuser.me/api/portraits/thumb/women/84.jpg"
            },
            "nat": "US"
        },
        {
            "name": {
                "title": "mr",
                "first": "mathys",
                "last": "bonnet"
            },
            "location": {
                "street": "8836 rue abel-ferry",
                "city": "nanterre",
                "state": "creuse",
                "postcode": 59728
            },
            "picture": {
                "large": "https://randomuser.me/api/portraits/men/80.jpg",
                "medium": "https://randomuser.me/api/portraits/med/men/80.jpg",
                "thumbnail": "https://randomuser.me/api/portraits/thumb/men/80.jpg"
            },
            "nat": "FR"
        },
        {
            "name": {
                "title": "ms",
                "first": "jennifer",
                "last": "pearson"
            },
            "location": {
                "street": "9489 photinia ave",
                "city": "port st. lucie",
                "state": "maine",
                "postcode": 74170
            },
            "picture": {
                "large": "https://randomuser.me/api/portraits/women/6.jpg",
                "medium": "https://randomuser.me/api/portraits/med/women/6.jpg",
                "thumbnail": "https://randomuser.me/api/portraits/thumb/women/6.jpg"
            },
            "nat": "US"
        },
        {
            "name": {
                "title": "mr",
                "first": "duane",
                "last": "cole"
            },
            "location": {
                "street": "4456 north street",
                "city": "carlisle",
                "state": "county londonderry",
                "postcode": "UP2 8WG"
            },
            "picture": {
                "large": "https://randomuser.me/api/portraits/men/39.jpg",
                "medium": "https://randomuser.me/api/portraits/med/men/39.jpg",
                "thumbnail": "https://randomuser.me/api/portraits/thumb/men/39.jpg"
            },
            "nat": "GB"
        },
        {
            "name": {
                "title": "mr",
                "first": "lewis",
                "last": "russell"
            },
            "location": {
                "street": "3698 camden ave",
                "city": "yakima",
                "state": "ohio",
                "postcode": 41038
            },
            "picture": {
                "large": "https://randomuser.me/api/portraits/men/49.jpg",
                "medium": "https://randomuser.me/api/portraits/med/men/49.jpg",
                "thumbnail": "https://randomuser.me/api/portraits/thumb/men/49.jpg"
            },
            "nat": "US"
        },
        {
            "name": {
                "title": "mr",
                "first": "florian",
                "last": "adam"
            },
            "location": {
                "street": "7898 avenue du fort-caire",
                "city": "versailles",
                "state": "val-de-marne",
                "postcode": 15269
            },
            "picture": {
                "large": "https://randomuser.me/api/portraits/men/8.jpg",
                "medium": "https://randomuser.me/api/portraits/med/men/8.jpg",
                "thumbnail": "https://randomuser.me/api/portraits/thumb/men/8.jpg"
            },
            "nat": "FR"
        },
        {
            "name": {
                "title": "ms",
                "first": "soline",
                "last": "pierre"
            },
            "location": {
                "street": "2965 rue de cuire",
                "city": "colombes",
                "state": "côtes-d'armor",
                "postcode": 77967
            },
            "picture": {
                "large": "https://randomuser.me/api/portraits/women/12.jpg",
                "medium": "https://randomuser.me/api/portraits/med/women/12.jpg",
                "thumbnail": "https://randomuser.me/api/portraits/thumb/women/12.jpg"
            },
            "nat": "FR"
        },
        {
            "name": {
                "title": "mrs",
                "first": "judith",
                "last": "wright"
            },
            "location": {
                "street": "5599 queen street",
                "city": "aberdeen",
                "state": "south glamorgan",
                "postcode": "R8 8JX"
            },
            "picture": {
                "large": "https://randomuser.me/api/portraits/women/30.jpg",
                "medium": "https://randomuser.me/api/portraits/med/women/30.jpg",
                "thumbnail": "https://randomuser.me/api/portraits/thumb/women/30.jpg"
            },
            "nat": "GB"
        },
        {
            "name": {
                "title": "miss",
                "first": "tracey",
                "last": "meyer"
            },
            "location": {
                "street": "8738 albert road",
                "city": "ripon",
                "state": "cleveland",
                "postcode": "D2 3BW"
            },
            "picture": {
                "large": "https://randomuser.me/api/portraits/women/89.jpg",
                "medium": "https://randomuser.me/api/portraits/med/women/89.jpg",
                "thumbnail": "https://randomuser.me/api/portraits/thumb/women/89.jpg"
            },
            "nat": "GB"
        },
        {
            "name": {
                "title": "mrs",
                "first": "yolanda",
                "last": "rodriguez"
            },
            "location": {
                "street": "7344 plum st",
                "city": "augusta",
                "state": "vermont",
                "postcode": 60826
            },
            "picture": {
                "large": "https://randomuser.me/api/portraits/women/75.jpg",
                "medium": "https://randomuser.me/api/portraits/med/women/75.jpg",
                "thumbnail": "https://randomuser.me/api/portraits/thumb/women/75.jpg"
            },
            "nat": "US"
        },
        {
            "name": {
                "title": "ms",
                "first": "denise",
                "last": "lambert"
            },
            "location": {
                "street": "1829 cackson st",
                "city": "raleigh",
                "state": "kansas",
                "postcode": 18567
            },
            "picture": {
                "large": "https://randomuser.me/api/portraits/women/67.jpg",
                "medium": "https://randomuser.me/api/portraits/med/women/67.jpg",
                "thumbnail": "https://randomuser.me/api/portraits/thumb/women/67.jpg"
            },
            "nat": "US"
        },
        {
            "name": {
                "title": "mrs",
                "first": "lillian",
                "last": "dunn"
            },
            "location": {
                "street": "3292 queens road",
                "city": "chichester",
                "state": "lincolnshire",
                "postcode": "JM2I 7FG"
            },
            "picture": {
                "large": "https://randomuser.me/api/portraits/women/24.jpg",
                "medium": "https://randomuser.me/api/portraits/med/women/24.jpg",
                "thumbnail": "https://randomuser.me/api/portraits/thumb/women/24.jpg"
            },
            "nat": "GB"
        },
        {
            "name": {
                "title": "mr",
                "first": "nathanaël",
                "last": "lecomte"
            },
            "location": {
                "street": "7447 rue paul-duvivier",
                "city": "argenteuil",
                "state": "ain",
                "postcode": 88119
            },
            "picture": {
                "large": "https://randomuser.me/api/portraits/men/71.jpg",
                "medium": "https://randomuser.me/api/portraits/med/men/71.jpg",
                "thumbnail": "https://randomuser.me/api/portraits/thumb/men/71.jpg"
            },
            "nat": "FR"
        },
        {
            "name": {
                "title": "miss",
                "first": "nevaeh",
                "last": "walters"
            },
            "location": {
                "street": "7255 spring hill rd",
                "city": "scottsdale",
                "state": "maryland",
                "postcode": 31445
            },
            "picture": {
                "large": "https://randomuser.me/api/portraits/women/50.jpg",
                "medium": "https://randomuser.me/api/portraits/med/women/50.jpg",
                "thumbnail": "https://randomuser.me/api/portraits/thumb/women/50.jpg"
            },
            "nat": "US"
        },
        {
            "name": {
                "title": "ms",
                "first": "alicia",
                "last": "muller"
            },
            "location": {
                "street": "6655 rue paul-duvivier",
                "city": "courbevoie",
                "state": "indre-et-loire",
                "postcode": 62689
            },
            "picture": {
                "large": "https://randomuser.me/api/portraits/women/24.jpg",
                "medium": "https://randomuser.me/api/portraits/med/women/24.jpg",
                "thumbnail": "https://randomuser.me/api/portraits/thumb/women/24.jpg"
            },
            "nat": "FR"
        },
        {
            "name": {
                "title": "ms",
                "first": "anaëlle",
                "last": "da silva"
            },
            "location": {
                "street": "1298 rue du bât-d'argent",
                "city": "créteil",
                "state": "ardennes",
                "postcode": 29032
            },
            "picture": {
                "large": "https://randomuser.me/api/portraits/women/8.jpg",
                "medium": "https://randomuser.me/api/portraits/med/women/8.jpg",
                "thumbnail": "https://randomuser.me/api/portraits/thumb/women/8.jpg"
            },
            "nat": "FR"
        },
        {
            "name": {
                "title": "mr",
                "first": "harold",
                "last": "cox"
            },
            "location": {
                "street": "3432 the avenue",
                "city": "belfast",
                "state": "county armagh",
                "postcode": "F38 9ZT"
            },
            "picture": {
                "large": "https://randomuser.me/api/portraits/men/23.jpg",
                "medium": "https://randomuser.me/api/portraits/med/men/23.jpg",
                "thumbnail": "https://randomuser.me/api/portraits/thumb/men/23.jpg"
            },
            "nat": "GB"
        },
        {
            "name": {
                "title": "miss",
                "first": "jessie",
                "last": "griffin"
            },
            "location": {
                "street": "3216 college st",
                "city": "new orleans",
                "state": "california",
                "postcode": 77350
            },
            "picture": {
                "large": "https://randomuser.me/api/portraits/women/85.jpg",
                "medium": "https://randomuser.me/api/portraits/med/women/85.jpg",
                "thumbnail": "https://randomuser.me/api/portraits/thumb/women/85.jpg"
            },
            "nat": "US"
        },
        {
            "name": {
                "title": "mrs",
                "first": "justine",
                "last": "bonnet"
            },
            "location": {
                "street": "5835 place du 8 février 1962",
                "city": "dijon",
                "state": "alpes-maritimes",
                "postcode": 25245
            },
            "picture": {
                "large": "https://randomuser.me/api/portraits/women/70.jpg",
                "medium": "https://randomuser.me/api/portraits/med/women/70.jpg",
                "thumbnail": "https://randomuser.me/api/portraits/thumb/women/70.jpg"
            },
            "nat": "FR"
        },
        {
            "name": {
                "title": "mr",
                "first": "steven",
                "last": "thomas"
            },
            "location": {
                "street": "3161 green rd",
                "city": "akron",
                "state": "massachusetts",
                "postcode": 63692
            },
            "picture": {
                "large": "https://randomuser.me/api/portraits/men/88.jpg",
                "medium": "https://randomuser.me/api/portraits/med/men/88.jpg",
                "thumbnail": "https://randomuser.me/api/portraits/thumb/men/88.jpg"
            },
            "nat": "US"
        },
        {
            "name": {
                "title": "mr",
                "first": "aiden",
                "last": "barnett"
            },
            "location": {
                "street": "6562 park avenue",
                "city": "swansea",
                "state": "cornwall",
                "postcode": "SX2 5FS"
            },
            "picture": {
                "large": "https://randomuser.me/api/portraits/men/93.jpg",
                "medium": "https://randomuser.me/api/portraits/med/men/93.jpg",
                "thumbnail": "https://randomuser.me/api/portraits/thumb/men/93.jpg"
            },
            "nat": "GB"
        },
        {
            "name": {
                "title": "mrs",
                "first": "suzanna",
                "last": "ruiz"
            },
            "location": {
                "street": "3454 mill lane",
                "city": "birmingham",
                "state": "isle of wight",
                "postcode": "Q6 5PN"
            },
            "picture": {
                "large": "https://randomuser.me/api/portraits/women/39.jpg",
                "medium": "https://randomuser.me/api/portraits/med/women/39.jpg",
                "thumbnail": "https://randomuser.me/api/portraits/thumb/women/39.jpg"
            },
            "nat": "GB"
        },
        {
            "name": {
                "title": "mr",
                "first": "jean",
                "last": "hubert"
            },
            "location": {
                "street": "3485 place du 22 novembre 1943",
                "city": "pau",
                "state": "loire",
                "postcode": 58825
            },
            "picture": {
                "large": "https://randomuser.me/api/portraits/men/75.jpg",
                "medium": "https://randomuser.me/api/portraits/med/men/75.jpg",
                "thumbnail": "https://randomuser.me/api/portraits/thumb/men/75.jpg"
            },
            "nat": "FR"
        },
        {
            "name": {
                "title": "ms",
                "first": "léa",
                "last": "michel"
            },
            "location": {
                "street": "4709 avenue debourg",
                "city": "argenteuil",
                "state": "marne",
                "postcode": 60648
            },
            "picture": {
                "large": "https://randomuser.me/api/portraits/women/34.jpg",
                "medium": "https://randomuser.me/api/portraits/med/women/34.jpg",
                "thumbnail": "https://randomuser.me/api/portraits/thumb/women/34.jpg"
            },
            "nat": "FR"
        },
        {
            "name": {
                "title": "mr",
                "first": "andy",
                "last": "dunn"
            },
            "location": {
                "street": "6898 queensway",
                "city": "bath",
                "state": "county tyrone",
                "postcode": "OB8W 2WH"
            },
            "picture": {
                "large": "https://randomuser.me/api/portraits/men/48.jpg",
                "medium": "https://randomuser.me/api/portraits/med/men/48.jpg",
                "thumbnail": "https://randomuser.me/api/portraits/thumb/men/48.jpg"
            },
            "nat": "GB"
        },
        {
            "name": {
                "title": "mr",
                "first": "aaron",
                "last": "richardson"
            },
            "location": {
                "street": "6468 york road",
                "city": "plymouth",
                "state": "grampian",
                "postcode": "C9 1WP"
            },
            "picture": {
                "large": "https://randomuser.me/api/portraits/men/65.jpg",
                "medium": "https://randomuser.me/api/portraits/med/men/65.jpg",
                "thumbnail": "https://randomuser.me/api/portraits/thumb/men/65.jpg"
            },
            "nat": "GB"
        },
        {
            "name": {
                "title": "mr",
                "first": "mark",
                "last": "robertson"
            },
            "location": {
                "street": "4574 brown terrace",
                "city": "green bay",
                "state": "new hampshire",
                "postcode": 30739
            },
            "picture": {
                "large": "https://randomuser.me/api/portraits/men/66.jpg",
                "medium": "https://randomuser.me/api/portraits/med/men/66.jpg",
                "thumbnail": "https://randomuser.me/api/portraits/thumb/men/66.jpg"
            },
            "nat": "US"
        },
        {
            "name": {
                "title": "miss",
                "first": "holly",
                "last": "craig"
            },
            "location": {
                "street": "2177 york road",
                "city": "stirling",
                "state": "borders",
                "postcode": "LG7C 8NH"
            },
            "picture": {
                "large": "https://randomuser.me/api/portraits/women/82.jpg",
                "medium": "https://randomuser.me/api/portraits/med/women/82.jpg",
                "thumbnail": "https://randomuser.me/api/portraits/thumb/women/82.jpg"
            },
            "nat": "GB"
        },
        {
            "name": {
                "title": "mr",
                "first": "antoine",
                "last": "gaillard"
            },
            "location": {
                "street": "8621 place de l'abbé-georges-hénocque",
                "city": "orléans",
                "state": "orne",
                "postcode": 53953
            },
            "picture": {
                "large": "https://randomuser.me/api/portraits/men/24.jpg",
                "medium": "https://randomuser.me/api/portraits/med/men/24.jpg",
                "thumbnail": "https://randomuser.me/api/portraits/thumb/men/24.jpg"
            },
            "nat": "FR"
        },
        {
            "name": {
                "title": "ms",
                "first": "nellie",
                "last": "long"
            },
            "location": {
                "street": "9061 wycliff ave",
                "city": "dumas",
                "state": "south carolina",
                "postcode": 81255
            },
            "picture": {
                "large": "https://randomuser.me/api/portraits/women/42.jpg",
                "medium": "https://randomuser.me/api/portraits/med/women/42.jpg",
                "thumbnail": "https://randomuser.me/api/portraits/thumb/women/42.jpg"
            },
            "nat": "US"
        },
        {
            "name": {
                "title": "mrs",
                "first": "axelle",
                "last": "marchand"
            },
            "location": {
                "street": "5922 avenue debourg",
                "city": "rueil-malmaison",
                "state": "loiret",
                "postcode": 61891
            },
            "picture": {
                "large": "https://randomuser.me/api/portraits/women/94.jpg",
                "medium": "https://randomuser.me/api/portraits/med/women/94.jpg",
                "thumbnail": "https://randomuser.me/api/portraits/thumb/women/94.jpg"
            },
            "nat": "FR"
        },
        {
            "name": {
                "title": "ms",
                "first": "inaya",
                "last": "garcia"
            },
            "location": {
                "street": "6922 rue paul-duvivier",
                "city": "lille",
                "state": "vienne",
                "postcode": 92713
            },
            "picture": {
                "large": "https://randomuser.me/api/portraits/women/43.jpg",
                "medium": "https://randomuser.me/api/portraits/med/women/43.jpg",
                "thumbnail": "https://randomuser.me/api/portraits/thumb/women/43.jpg"
            },
            "nat": "FR"
        },
        {
            "name": {
                "title": "mrs",
                "first": "abbie",
                "last": "fuller"
            },
            "location": {
                "street": "9801 park avenue",
                "city": "dundee",
                "state": "county fermanagh",
                "postcode": "U45 1SH"
            },
            "picture": {
                "large": "https://randomuser.me/api/portraits/women/72.jpg",
                "medium": "https://randomuser.me/api/portraits/med/women/72.jpg",
                "thumbnail": "https://randomuser.me/api/portraits/thumb/women/72.jpg"
            },
            "nat": "GB"
        },
        {
            "name": {
                "title": "ms",
                "first": "sam",
                "last": "schmidt"
            },
            "location": {
                "street": "1636 high street",
                "city": "york",
                "state": "cheshire",
                "postcode": "W3L 7LQ"
            },
            "picture": {
                "large": "https://randomuser.me/api/portraits/women/45.jpg",
                "medium": "https://randomuser.me/api/portraits/med/women/45.jpg",
                "thumbnail": "https://randomuser.me/api/portraits/thumb/women/45.jpg"
            },
            "nat": "GB"
        },
        {
            "name": {
                "title": "mr",
                "first": "jeremy",
                "last": "kennedy"
            },
            "location": {
                "street": "1836 crockett st",
                "city": "louisville",
                "state": "connecticut",
                "postcode": 83173
            },
            "picture": {
                "large": "https://randomuser.me/api/portraits/men/73.jpg",
                "medium": "https://randomuser.me/api/portraits/med/men/73.jpg",
                "thumbnail": "https://randomuser.me/api/portraits/thumb/men/73.jpg"
            },
            "nat": "US"
        },
        {
            "name": {
                "title": "mrs",
                "first": "margie",
                "last": "wright"
            },
            "location": {
                "street": "3797 timber wolf trail",
                "city": "garland",
                "state": "alaska",
                "postcode": 80635
            },
            "picture": {
                "large": "https://randomuser.me/api/portraits/women/45.jpg",
                "medium": "https://randomuser.me/api/portraits/med/women/45.jpg",
                "thumbnail": "https://randomuser.me/api/portraits/thumb/women/45.jpg"
            },
            "nat": "US"
        },
        {
            "name": {
                "title": "ms",
                "first": "jennifer",
                "last": "steward"
            },
            "location": {
                "street": "3446 grove road",
                "city": "bath",
                "state": "leicestershire",
                "postcode": "RJ89 5QH"
            },
            "picture": {
                "large": "https://randomuser.me/api/portraits/women/61.jpg",
                "medium": "https://randomuser.me/api/portraits/med/women/61.jpg",
                "thumbnail": "https://randomuser.me/api/portraits/thumb/women/61.jpg"
            },
            "nat": "GB"
        },
        {
            "name": {
                "title": "mr",
                "first": "mitchell",
                "last": "hansen"
            },
            "location": {
                "street": "8327 e pecan st",
                "city": "fort wayne",
                "state": "maine",
                "postcode": 37870
            },
            "picture": {
                "large": "https://randomuser.me/api/portraits/men/99.jpg",
                "medium": "https://randomuser.me/api/portraits/med/men/99.jpg",
                "thumbnail": "https://randomuser.me/api/portraits/thumb/men/99.jpg"
            },
            "nat": "US"
        },
        {
            "name": {
                "title": "mrs",
                "first": "debbie",
                "last": "cox"
            },
            "location": {
                "street": "2999 london road",
                "city": "peterborough",
                "state": "north yorkshire",
                "postcode": "X3 7ND"
            },
            "picture": {
                "large": "https://randomuser.me/api/portraits/women/6.jpg",
                "medium": "https://randomuser.me/api/portraits/med/women/6.jpg",
                "thumbnail": "https://randomuser.me/api/portraits/thumb/women/6.jpg"
            },
            "nat": "GB"
        },
        {
            "name": {
                "title": "mrs",
                "first": "diana",
                "last": "ramirez"
            },
            "location": {
                "street": "7498 chester road",
                "city": "canterbury",
                "state": "durham",
                "postcode": "UM2 2FY"
            },
            "picture": {
                "large": "https://randomuser.me/api/portraits/women/1.jpg",
                "medium": "https://randomuser.me/api/portraits/med/women/1.jpg",
                "thumbnail": "https://randomuser.me/api/portraits/thumb/women/1.jpg"
            },
            "nat": "GB"
        },
        {
            "name": {
                "title": "mr",
                "first": "gaëtan",
                "last": "blanchard"
            },
            "location": {
                "street": "2817 place de l'abbé-basset",
                "city": "metz",
                "state": "loire-atlantique",
                "postcode": 70021
            },
            "picture": {
                "large": "https://randomuser.me/api/portraits/men/56.jpg",
                "medium": "https://randomuser.me/api/portraits/med/men/56.jpg",
                "thumbnail": "https://randomuser.me/api/portraits/thumb/men/56.jpg"
            },
            "nat": "FR"
        },
        {
            "name": {
                "title": "mrs",
                "first": "eléna",
                "last": "rousseau"
            },
            "location": {
                "street": "8372 rue pierre-delore",
                "city": "saint-étienne",
                "state": "alpes-de-haute-provence",
                "postcode": 73782
            },
            "picture": {
                "large": "https://randomuser.me/api/portraits/women/93.jpg",
                "medium": "https://randomuser.me/api/portraits/med/women/93.jpg",
                "thumbnail": "https://randomuser.me/api/portraits/thumb/women/93.jpg"
            },
            "nat": "FR"
        },
        {
            "name": {
                "title": "mr",
                "first": "téo",
                "last": "gaillard"
            },
            "location": {
                "street": "2444 rue de l'abbé-groult",
                "city": "asnières-sur-seine",
                "state": "doubs",
                "postcode": 60242
            },
            "picture": {
                "large": "https://randomuser.me/api/portraits/men/4.jpg",
                "medium": "https://randomuser.me/api/portraits/med/men/4.jpg",
                "thumbnail": "https://randomuser.me/api/portraits/thumb/men/4.jpg"
            },
            "nat": "FR"
        },
        {
            "name": {
                "title": "miss",
                "first": "alison",
                "last": "hamilton"
            },
            "location": {
                "street": "1729 park lane",
                "city": "salford",
                "state": "county antrim",
                "postcode": "JC51 6SF"
            },
            "picture": {
                "large": "https://randomuser.me/api/portraits/women/26.jpg",
                "medium": "https://randomuser.me/api/portraits/med/women/26.jpg",
                "thumbnail": "https://randomuser.me/api/portraits/thumb/women/26.jpg"
            },
            "nat": "GB"
        },
        {
            "name": {
                "title": "mr",
                "first": "adam",
                "last": "bryant"
            },
            "location": {
                "street": "7893 victoria road",
                "city": "bradford",
                "state": "northumberland",
                "postcode": "KC8C 4DR"
            },
            "picture": {
                "large": "https://randomuser.me/api/portraits/men/92.jpg",
                "medium": "https://randomuser.me/api/portraits/med/men/92.jpg",
                "thumbnail": "https://randomuser.me/api/portraits/thumb/men/92.jpg"
            },
            "nat": "GB"
        },
        {
            "name": {
                "title": "mr",
                "first": "jesus",
                "last": "arnold"
            },
            "location": {
                "street": "7008 kingsway",
                "city": "norwich",
                "state": "cumbria",
                "postcode": "D8 8SN"
            },
            "picture": {
                "large": "https://randomuser.me/api/portraits/men/12.jpg",
                "medium": "https://randomuser.me/api/portraits/med/men/12.jpg",
                "thumbnail": "https://randomuser.me/api/portraits/thumb/men/12.jpg"
            },
            "nat": "GB"
        },
        {
            "name": {
                "title": "mr",
                "first": "florian",
                "last": "rey"
            },
            "location": {
                "street": "2012 rue victor-hugo",
                "city": "toulon",
                "state": "hautes-alpes",
                "postcode": 41833
            },
            "picture": {
                "large": "https://randomuser.me/api/portraits/men/67.jpg",
                "medium": "https://randomuser.me/api/portraits/med/men/67.jpg",
                "thumbnail": "https://randomuser.me/api/portraits/thumb/men/67.jpg"
            },
            "nat": "FR"
        },
        {
            "name": {
                "title": "mr",
                "first": "guy",
                "last": "burns"
            },
            "location": {
                "street": "6180 hunters creek dr",
                "city": "pompano beach",
                "state": "ohio",
                "postcode": 90160
            },
            "picture": {
                "large": "https://randomuser.me/api/portraits/men/59.jpg",
                "medium": "https://randomuser.me/api/portraits/med/men/59.jpg",
                "thumbnail": "https://randomuser.me/api/portraits/thumb/men/59.jpg"
            },
            "nat": "US"
        },
        {
            "name": {
                "title": "mr",
                "first": "max",
                "last": "vasquez"
            },
            "location": {
                "street": "8980 the crescent",
                "city": "derby",
                "state": "county down",
                "postcode": "S06 1SL"
            },
            "picture": {
                "large": "https://randomuser.me/api/portraits/men/28.jpg",
                "medium": "https://randomuser.me/api/portraits/med/men/28.jpg",
                "thumbnail": "https://randomuser.me/api/portraits/thumb/men/28.jpg"
            },
            "nat": "GB"
        },
        {
            "name": {
                "title": "mr",
                "first": "célian",
                "last": "thomas"
            },
            "location": {
                "street": "8592 rue du château",
                "city": "tourcoing",
                "state": "aisne",
                "postcode": 83439
            },
            "picture": {
                "large": "https://randomuser.me/api/portraits/men/54.jpg",
                "medium": "https://randomuser.me/api/portraits/med/men/54.jpg",
                "thumbnail": "https://randomuser.me/api/portraits/thumb/men/54.jpg"
            },
            "nat": "FR"
        },
        {
            "name": {
                "title": "miss",
                "first": "leah",
                "last": "holland"
            },
            "location": {
                "street": "6981 north street",
                "city": "lincoln",
                "state": "kent",
                "postcode": "OI7 9HZ"
            },
            "picture": {
                "large": "https://randomuser.me/api/portraits/women/25.jpg",
                "medium": "https://randomuser.me/api/portraits/med/women/25.jpg",
                "thumbnail": "https://randomuser.me/api/portraits/thumb/women/25.jpg"
            },
            "nat": "GB"
        },
        {
            "name": {
                "title": "mr",
                "first": "melvin",
                "last": "gray"
            },
            "location": {
                "street": "8141 manor road",
                "city": "inverness",
                "state": "warwickshire",
                "postcode": "E4 5ER"
            },
            "picture": {
                "large": "https://randomuser.me/api/portraits/men/2.jpg",
                "medium": "https://randomuser.me/api/portraits/med/men/2.jpg",
                "thumbnail": "https://randomuser.me/api/portraits/thumb/men/2.jpg"
            },
            "nat": "GB"
        },
        {
            "name": {
                "title": "miss",
                "first": "lisa",
                "last": "may"
            },
            "location": {
                "street": "7250 royal ln",
                "city": "garden grove",
                "state": "utah",
                "postcode": 50701
            },
            "picture": {
                "large": "https://randomuser.me/api/portraits/women/76.jpg",
                "medium": "https://randomuser.me/api/portraits/med/women/76.jpg",
                "thumbnail": "https://randomuser.me/api/portraits/thumb/women/76.jpg"
            },
            "nat": "US"
        },
        {
            "name": {
                "title": "mr",
                "first": "loris",
                "last": "lacroix"
            },
            "location": {
                "street": "7146 rue du moulin",
                "city": "mulhouse",
                "state": "yonne",
                "postcode": 12527
            },
            "picture": {
                "large": "https://randomuser.me/api/portraits/men/13.jpg",
                "medium": "https://randomuser.me/api/portraits/med/men/13.jpg",
                "thumbnail": "https://randomuser.me/api/portraits/thumb/men/13.jpg"
            },
            "nat": "FR"
        },
        {
            "name": {
                "title": "mr",
                "first": "mitchell",
                "last": "ford"
            },
            "location": {
                "street": "8851 york road",
                "city": "chester",
                "state": "greater manchester",
                "postcode": "PO99 2ZD"
            },
            "picture": {
                "large": "https://randomuser.me/api/portraits/men/36.jpg",
                "medium": "https://randomuser.me/api/portraits/med/men/36.jpg",
                "thumbnail": "https://randomuser.me/api/portraits/thumb/men/36.jpg"
            },
            "nat": "GB"
        },
        {
            "name": {
                "title": "ms",
                "first": "charlotte",
                "last": "long"
            },
            "location": {
                "street": "5771 manor road",
                "city": "leicester",
                "state": "wiltshire",
                "postcode": "H8O 0TQ"
            },
            "picture": {
                "large": "https://randomuser.me/api/portraits/women/77.jpg",
                "medium": "https://randomuser.me/api/portraits/med/women/77.jpg",
                "thumbnail": "https://randomuser.me/api/portraits/thumb/women/77.jpg"
            },
            "nat": "GB"
        },
        {
            "name": {
                "title": "miss",
                "first": "kimberly",
                "last": "shelton"
            },
            "location": {
                "street": "4381 west street",
                "city": "kingston upon hull",
                "state": "county antrim",
                "postcode": "M1M 9YN"
            },
            "picture": {
                "large": "https://randomuser.me/api/portraits/women/70.jpg",
                "medium": "https://randomuser.me/api/portraits/med/women/70.jpg",
                "thumbnail": "https://randomuser.me/api/portraits/thumb/women/70.jpg"
            },
            "nat": "GB"
        },
        {
            "name": {
                "title": "ms",
                "first": "mattie",
                "last": "carpenter"
            },
            "location": {
                "street": "1726 daisy dr",
                "city": "san antonio",
                "state": "illinois",
                "postcode": 66875
            },
            "picture": {
                "large": "https://randomuser.me/api/portraits/women/33.jpg",
                "medium": "https://randomuser.me/api/portraits/med/women/33.jpg",
                "thumbnail": "https://randomuser.me/api/portraits/thumb/women/33.jpg"
            },
            "nat": "US"
        },
        {
            "name": {
                "title": "mrs",
                "first": "jill",
                "last": "johnson"
            },
            "location": {
                "street": "3399 samaritan dr",
                "city": "san bernardino",
                "state": "north dakota",
                "postcode": 11778
            },
            "picture": {
                "large": "https://randomuser.me/api/portraits/women/50.jpg",
                "medium": "https://randomuser.me/api/portraits/med/women/50.jpg",
                "thumbnail": "https://randomuser.me/api/portraits/thumb/women/50.jpg"
            },
            "nat": "US"
        },
        {
            "name": {
                "title": "miss",
                "first": "susan",
                "last": "vasquez"
            },
            "location": {
                "street": "2267 central st",
                "city": "charleston",
                "state": "pennsylvania",
                "postcode": 99430
            },
            "picture": {
                "large": "https://randomuser.me/api/portraits/women/78.jpg",
                "medium": "https://randomuser.me/api/portraits/med/women/78.jpg",
                "thumbnail": "https://randomuser.me/api/portraits/thumb/women/78.jpg"
            },
            "nat": "US"
        },
        {
            "name": {
                "title": "mrs",
                "first": "delores",
                "last": "morrison"
            },
            "location": {
                "street": "1362 mockingbird ln",
                "city": "denver",
                "state": "florida",
                "postcode": 60439
            },
            "picture": {
                "large": "https://randomuser.me/api/portraits/women/43.jpg",
                "medium": "https://randomuser.me/api/portraits/med/women/43.jpg",
                "thumbnail": "https://randomuser.me/api/portraits/thumb/women/43.jpg"
            },
            "nat": "US"
        },
        {
            "name": {
                "title": "mr",
                "first": "herbert",
                "last": "gardner"
            },
            "location": {
                "street": "6371 avondale ave",
                "city": "syracuse",
                "state": "arkansas",
                "postcode": 90971
            },
            "picture": {
                "large": "https://randomuser.me/api/portraits/men/62.jpg",
                "medium": "https://randomuser.me/api/portraits/med/men/62.jpg",
                "thumbnail": "https://randomuser.me/api/portraits/thumb/men/62.jpg"
            },
            "nat": "US"
        },
        {
            "name": {
                "title": "ms",
                "first": "myrtle",
                "last": "jensen"
            },
            "location": {
                "street": "7386 rolling green rd",
                "city": "cleveland",
                "state": "delaware",
                "postcode": 65837
            },
            "picture": {
                "large": "https://randomuser.me/api/portraits/women/6.jpg",
                "medium": "https://randomuser.me/api/portraits/med/women/6.jpg",
                "thumbnail": "https://randomuser.me/api/portraits/thumb/women/6.jpg"
            },
            "nat": "US"
        },
        {
            "name": {
                "title": "mrs",
                "first": "laurine",
                "last": "chevalier"
            },
            "location": {
                "street": "3909 rue de l'abbé-groult",
                "city": "boulogne-billancourt",
                "state": "sarthe",
                "postcode": 97110
            },
            "picture": {
                "large": "https://randomuser.me/api/portraits/women/81.jpg",
                "medium": "https://randomuser.me/api/portraits/med/women/81.jpg",
                "thumbnail": "https://randomuser.me/api/portraits/thumb/women/81.jpg"
            },
            "nat": "FR"
        },
        {
            "name": {
                "title": "mr",
                "first": "bryan",
                "last": "knight"
            },
            "location": {
                "street": "5608 queensway",
                "city": "derby",
                "state": "isle of wight",
                "postcode": "H34 5GA"
            },
            "picture": {
                "large": "https://randomuser.me/api/portraits/men/46.jpg",
                "medium": "https://randomuser.me/api/portraits/med/men/46.jpg",
                "thumbnail": "https://randomuser.me/api/portraits/thumb/men/46.jpg"
            },
            "nat": "GB"
        },
        {
            "name": {
                "title": "ms",
                "first": "kelly",
                "last": "nguyen"
            },
            "location": {
                "street": "2684 george street",
                "city": "belfast",
                "state": "west sussex",
                "postcode": "BQ3 4FU"
            },
            "picture": {
                "large": "https://randomuser.me/api/portraits/women/30.jpg",
                "medium": "https://randomuser.me/api/portraits/med/women/30.jpg",
                "thumbnail": "https://randomuser.me/api/portraits/thumb/women/30.jpg"
            },
            "nat": "GB"
        },
        {
            "name": {
                "title": "mr",
                "first": "nicolas",
                "last": "bourgeois"
            },
            "location": {
                "street": "2877 avenue vauban",
                "city": "toulouse",
                "state": "finistère",
                "postcode": 46721
            },
            "picture": {
                "large": "https://randomuser.me/api/portraits/men/39.jpg",
                "medium": "https://randomuser.me/api/portraits/med/men/39.jpg",
                "thumbnail": "https://randomuser.me/api/portraits/thumb/men/39.jpg"
            },
            "nat": "FR"
        },
        {
            "name": {
                "title": "mrs",
                "first": "cassandre",
                "last": "roger"
            },
            "location": {
                "street": "9125 rue abel-hovelacque",
                "city": "lyon",
                "state": "mayotte",
                "postcode": 31042
            },
            "picture": {
                "large": "https://randomuser.me/api/portraits/women/60.jpg",
                "medium": "https://randomuser.me/api/portraits/med/women/60.jpg",
                "thumbnail": "https://randomuser.me/api/portraits/thumb/women/60.jpg"
            },
            "nat": "FR"
        },
        {
            "name": {
                "title": "mr",
                "first": "wyatt",
                "last": "wright"
            },
            "location": {
                "street": "8710 york road",
                "city": "wells",
                "state": "gwynedd county",
                "postcode": "G1 1HG"
            },
            "picture": {
                "large": "https://randomuser.me/api/portraits/men/27.jpg",
                "medium": "https://randomuser.me/api/portraits/med/men/27.jpg",
                "thumbnail": "https://randomuser.me/api/portraits/thumb/men/27.jpg"
            },
            "nat": "GB"
        },
        {
            "name": {
                "title": "mr",
                "first": "theodore",
                "last": "davidson"
            },
            "location": {
                "street": "7253 windsor road",
                "city": "chichester",
                "state": "oxfordshire",
                "postcode": "HI2W 6JZ"
            },
            "picture": {
                "large": "https://randomuser.me/api/portraits/men/98.jpg",
                "medium": "https://randomuser.me/api/portraits/med/men/98.jpg",
                "thumbnail": "https://randomuser.me/api/portraits/thumb/men/98.jpg"
            },
            "nat": "GB"
        },
        {
            "name": {
                "title": "ms",
                "first": "heidi",
                "last": "mills"
            },
            "location": {
                "street": "3895 robinson rd",
                "city": "ironville",
                "state": "florida",
                "postcode": 74142
            },
            "picture": {
                "large": "https://randomuser.me/api/portraits/women/17.jpg",
                "medium": "https://randomuser.me/api/portraits/med/women/17.jpg",
                "thumbnail": "https://randomuser.me/api/portraits/thumb/women/17.jpg"
            },
            "nat": "US"
        },
        {
            "name": {
                "title": "mr",
                "first": "jose",
                "last": "simmmons"
            },
            "location": {
                "street": "1137 timber wolf trail",
                "city": "burbank",
                "state": "mississippi",
                "postcode": 78845
            },
            "picture": {
                "large": "https://randomuser.me/api/portraits/men/64.jpg",
                "medium": "https://randomuser.me/api/portraits/med/men/64.jpg",
                "thumbnail": "https://randomuser.me/api/portraits/thumb/men/64.jpg"
            },
            "nat": "US"
        },
        {
            "name": {
                "title": "miss",
                "first": "samantha",
                "last": "bryant"
            },
            "location": {
                "street": "7917 royal ln",
                "city": "lansing",
                "state": "connecticut",
                "postcode": 24130
            },
            "picture": {
                "large": "https://randomuser.me/api/portraits/women/51.jpg",
                "medium": "https://randomuser.me/api/portraits/med/women/51.jpg",
                "thumbnail": "https://randomuser.me/api/portraits/thumb/women/51.jpg"
            },
            "nat": "US"
        },
        {
            "name": {
                "title": "miss",
                "first": "marie",
                "last": "richardson"
            },
            "location": {
                "street": "9686 camden ave",
                "city": "oklahoma city",
                "state": "new hampshire",
                "postcode": 75042
            },
            "picture": {
                "large": "https://randomuser.me/api/portraits/women/43.jpg",
                "medium": "https://randomuser.me/api/portraits/med/women/43.jpg",
                "thumbnail": "https://randomuser.me/api/portraits/thumb/women/43.jpg"
            },
            "nat": "US"
        },
        {
            "name": {
                "title": "ms",
                "first": "abbie",
                "last": "alvarez"
            },
            "location": {
                "street": "1358 mill road",
                "city": "st davids",
                "state": "dyfed",
                "postcode": "W6 7JS"
            },
            "picture": {
                "large": "https://randomuser.me/api/portraits/women/2.jpg",
                "medium": "https://randomuser.me/api/portraits/med/women/2.jpg",
                "thumbnail": "https://randomuser.me/api/portraits/thumb/women/2.jpg"
            },
            "nat": "GB"
        },
        {
            "name": {
                "title": "miss",
                "first": "jessica",
                "last": "james"
            },
            "location": {
                "street": "1743 highfield road",
                "city": "stirling",
                "state": "cleveland",
                "postcode": "UY36 2HF"
            },
            "picture": {
                "large": "https://randomuser.me/api/portraits/women/68.jpg",
                "medium": "https://randomuser.me/api/portraits/med/women/68.jpg",
                "thumbnail": "https://randomuser.me/api/portraits/thumb/women/68.jpg"
            },
            "nat": "GB"
        },
        {
            "name": {
                "title": "ms",
                "first": "vicky",
                "last": "nelson"
            },
            "location": {
                "street": "5889 highfield road",
                "city": "bristol",
                "state": "county tyrone",
                "postcode": "N4 2BT"
            },
            "picture": {
                "large": "https://randomuser.me/api/portraits/women/39.jpg",
                "medium": "https://randomuser.me/api/portraits/med/women/39.jpg",
                "thumbnail": "https://randomuser.me/api/portraits/thumb/women/39.jpg"
            },
            "nat": "GB"
        },
        {
            "name": {
                "title": "mr",
                "first": "darryl",
                "last": "day"
            },
            "location": {
                "street": "3722 locust rd",
                "city": "el paso",
                "state": "new mexico",
                "postcode": 16997
            },
            "picture": {
                "large": "https://randomuser.me/api/portraits/men/64.jpg",
                "medium": "https://randomuser.me/api/portraits/med/men/64.jpg",
                "thumbnail": "https://randomuser.me/api/portraits/thumb/men/64.jpg"
            },
            "nat": "US"
        },
        {
            "name": {
                "title": "mr",
                "first": "wyatt",
                "last": "bowman"
            },
            "location": {
                "street": "8897 w belt line rd",
                "city": "seymour",
                "state": "nebraska",
                "postcode": 90415
            },
            "picture": {
                "large": "https://randomuser.me/api/portraits/men/13.jpg",
                "medium": "https://randomuser.me/api/portraits/med/men/13.jpg",
                "thumbnail": "https://randomuser.me/api/portraits/thumb/men/13.jpg"
            },
            "nat": "US"
        },
        {
            "name": {
                "title": "mr",
                "first": "dylan",
                "last": "sutton"
            },
            "location": {
                "street": "8650 spring st",
                "city": "grapevine",
                "state": "connecticut",
                "postcode": 97420
            },
            "picture": {
                "large": "https://randomuser.me/api/portraits/men/82.jpg",
                "medium": "https://randomuser.me/api/portraits/med/men/82.jpg",
                "thumbnail": "https://randomuser.me/api/portraits/thumb/men/82.jpg"
            },
            "nat": "US"
        },
        {
            "name": {
                "title": "ms",
                "first": "patricia",
                "last": "perry"
            },
            "location": {
                "street": "8448 new street",
                "city": "bradford",
                "state": "tyne and wear",
                "postcode": "TB1 9HL"
            },
            "picture": {
                "large": "https://randomuser.me/api/portraits/women/55.jpg",
                "medium": "https://randomuser.me/api/portraits/med/women/55.jpg",
                "thumbnail": "https://randomuser.me/api/portraits/thumb/women/55.jpg"
            },
            "nat": "GB"
        }
    ],
    "info": {
        "seed": "745894005e391665",
        "results": 150,
        "page": 1,
        "version": "1.1"
    }
}
